{
"type": "FeatureCollection",
"name": "volcanoes",
"crs": { "type": "name", "properties": { "name": "urn:ogc:def:crs:OGC:1.3:CRS84" } },
"features": [
{ "type": "Feature", "properties": { "id": "GLB_VOLC.1", "NUMBER_": "0100-01-", "NAME_": "WEST EIFE", "LOCATION": "Germany", "LAT": 50.17, "LON": 6.85, "ELEV": 600, "TYPE_": "Maars", "STATUS": "Radiocarb", "TIME_FRAME": "D7" }, "geometry": { "type": "Point", "coordinates": [ 6.85000007, 50.16789464 ] } },
{ "type": "Feature", "properties": { "id": "GLB_VOLC.2", "NUMBER_": "0100-02-", "NAME_": "CHAINE DE", "LOCATION": "France", "LAT": 45.5, "LON": 2.75, "ELEV": 1464, "TYPE_": "Cinder co", "STATUS": "Radiocarb", "TIME_FRAME": "D7" }, "geometry": { "type": "Point", "coordinates": [ 2.75000007, 45.49785949 ] } },
{ "type": "Feature", "properties": { "id": "GLB_VOLC.3", "NUMBER_": "0100-03-", "NAME_": "OLOT VOLC", "LOCATION": "Spain", "LAT": 42.17, "LON": 2.53, "ELEV": 893, "TYPE_": "Pyroclast", "STATUS": "Holocene?", "TIME_FRAME": "?" }, "geometry": { "type": "Point", "coordinates": [ 2.53000006, 42.16786921 ] } },
{ "type": "Feature", "properties": { "id": "GLB_VOLC.4", "NUMBER_": "0101-001", "NAME_": "LARDERELL", "LOCATION": "Italy", "LAT": 43.25, "LON": 10.87, "ELEV": 500, "TYPE_": "Explosion", "STATUS": "Historica", "TIME_FRAME": "D6" }, "geometry": { "type": "Point", "coordinates": [ 10.8699999, 43.24786285 ] } },
{ "type": "Feature", "properties": { "id": "GLB_VOLC.5", "NUMBER_": "0101-002", "NAME_": "AMIATA", "LOCATION": "Italy", "LAT": 42.9, "LON": 11.63, "ELEV": 1738, "TYPE_": "Lava dome", "STATUS": "Pleistoce", "TIME_FRAME": "Q" }, "geometry": { "type": "Point", "coordinates": [ 11.62999999, 42.89786467 ] } },
{ "type": "Feature", "properties": { "id": "GLB_VOLC.6", "NUMBER_": "0101-003", "NAME_": "VULSINI", "LOCATION": "Italy", "LAT": 42.6, "LON": 11.93, "ELEV": 800, "TYPE_": "Caldera", "STATUS": "Historica", "TIME_FRAME": "D7" }, "geometry": { "type": "Point", "coordinates": [ 11.92999997, 42.59786641 ] } },
{ "type": "Feature", "properties": { "id": "GLB_VOLC.7", "NUMBER_": "0101-004", "NAME_": "ALBANO, M", "LOCATION": "Italy", "LAT": 41.73, "LON": 12.7, "ELEV": 949, "TYPE_": "Caldera", "STATUS": "Holocene?", "TIME_FRAME": "?" }, "geometry": { "type": "Point", "coordinates": [ 12.7, 41.72787263 ] } },
{ "type": "Feature", "properties": { "id": "GLB_VOLC.8", "NUMBER_": "0101-01=", "NAME_": "CAMPI FLE", "LOCATION": "Italy", "LAT": 40.827, "LON": 14.139, "ELEV": 458, "TYPE_": "Caldera", "STATUS": "Historica", "TIME_FRAME": "D5" }, "geometry": { "type": "Point", "coordinates": [ 14.13899992, 40.82488131 ] } },
{ "type": "Feature", "properties": { "id": "GLB_VOLC.9", "NUMBER_": "0101-02=", "NAME_": "VESUVIUS", "LOCATION": "Italy", "LAT": 40.821, "LON": 14.426, "ELEV": 1281, "TYPE_": "Complex v", "STATUS": "Historica", "TIME_FRAME": "D2" }, "geometry": { "type": "Point", "coordinates": [ 14.42599993, 40.81888133 ] } },
{ "type": "Feature", "properties": { "id": "GLB_VOLC.10", "NUMBER_": "0101-03=", "NAME_": "ISCHIA", "LOCATION": "Italy", "LAT": 40.73, "LON": 13.898, "ELEV": 789, "TYPE_": "Complex v", "STATUS": "Historica", "TIME_FRAME": "D6" }, "geometry": { "type": "Point", "coordinates": [ 13.89799995, 40.72788233 ] } },
{ "type": "Feature", "properties": { "id": "GLB_VOLC.11", "NUMBER_": "0101-04=", "NAME_": "STROMBOLI", "LOCATION": "Italy", "LAT": 38.789, "LON": 15.213, "ELEV": 926, "TYPE_": "Stratovol", "STATUS": "Historica", "TIME_FRAME": "D1" }, "geometry": { "type": "Point", "coordinates": [ 15.21300004, 38.78690851 ] } },
{ "type": "Feature", "properties": { "id": "GLB_VOLC.12", "NUMBER_": "0101-041", "NAME_": "LIPARI", "LOCATION": "Italy", "LAT": 38.48, "LON": 14.95, "ELEV": 602, "TYPE_": "Stratovol", "STATUS": "Historica", "TIME_FRAME": "D6" }, "geometry": { "type": "Point", "coordinates": [ 14.95000002, 38.47791352 ] } },
{ "type": "Feature", "properties": { "id": "GLB_VOLC.13", "NUMBER_": "0101-05=", "NAME_": "VULCANO", "LOCATION": "Italy", "LAT": 38.404, "LON": 14.962, "ELEV": 500, "TYPE_": "Stratovol", "STATUS": "Historica", "TIME_FRAME": "D3" }, "geometry": { "type": "Point", "coordinates": [ 14.96199991, 38.40191472 ] } },
{ "type": "Feature", "properties": { "id": "GLB_VOLC.14", "NUMBER_": "0101-06=", "NAME_": "ETNA", "LOCATION": "Italy", "LAT": 37.734, "LON": 15.004, "ELEV": 3350, "TYPE_": "Shield vo", "STATUS": "Historica", "TIME_FRAME": "D1" }, "geometry": { "type": "Point", "coordinates": [ 15.00400005, 37.73192667 ] } },
{ "type": "Feature", "properties": { "id": "GLB_VOLC.15", "NUMBER_": "0101-07=", "NAME_": "CAMPI FLE", "LOCATION": "Italy", "LAT": 37.1, "LON": 12.7, "ELEV": -8, "TYPE_": "Submarine", "STATUS": "Historica", "TIME_FRAME": "D2" }, "geometry": { "type": "Point", "coordinates": [ 12.7, 37.09793912 ] } },
{ "type": "Feature", "properties": { "id": "GLB_VOLC.16", "NUMBER_": "0101-071", "NAME_": "PANTELLER", "LOCATION": "Italy", "LAT": 36.77, "LON": 12.02, "ELEV": 836, "TYPE_": "Shield vo", "STATUS": "Historica", "TIME_FRAME": "D3" }, "geometry": { "type": "Point", "coordinates": [ 12.02000008, 36.76794592 ] } },
{ "type": "Feature", "properties": { "id": "GLB_VOLC.17", "NUMBER_": "0102-02=", "NAME_": "METHANA", "LOCATION": "Greece", "LAT": 37.615, "LON": 23.336, "ELEV": 760, "TYPE_": "Lava dome", "STATUS": "Historica", "TIME_FRAME": "D7" }, "geometry": { "type": "Point", "coordinates": [ 23.3360001, 37.61292904 ] } },
{ "type": "Feature", "properties": { "id": "GLB_VOLC.18", "NUMBER_": "0102-03=", "NAME_": "MILOS", "LOCATION": "Greece", "LAT": 36.699, "LON": 24.439, "ELEV": 751, "TYPE_": "Stratovol", "STATUS": "Holocene", "TIME_FRAME": "U" }, "geometry": { "type": "Point", "coordinates": [ 24.43899997, 36.69694732 ] } },
{ "type": "Feature", "properties": { "id": "GLB_VOLC.19", "NUMBER_": "0102-04=", "NAME_": "SANTORINI", "LOCATION": "Greece", "LAT": 36.404, "LON": 25.396, "ELEV": 564, "TYPE_": "Shield vo", "STATUS": "Historica", "TIME_FRAME": "D2" }, "geometry": { "type": "Point", "coordinates": [ 25.39599994, 36.40195369 ] } },
{ "type": "Feature", "properties": { "id": "GLB_VOLC.20", "NUMBER_": "0102-05=", "NAME_": "NISYROS", "LOCATION": "Greece", "LAT": 36.58, "LON": 27.18, "ELEV": 698, "TYPE_": "Stratovol", "STATUS": "Historica", "TIME_FRAME": "D3" }, "geometry": { "type": "Point", "coordinates": [ 27.18000001, 36.57795 ] } },
{ "type": "Feature", "properties": { "id": "GLB_VOLC.21", "NUMBER_": "0102-051", "NAME_": "YALI", "LOCATION": "Greece", "LAT": 36.63, "LON": 27.1, "ELEV": 176, "TYPE_": "Lava dome", "STATUS": "Holocene", "TIME_FRAME": "U" }, "geometry": { "type": "Point", "coordinates": [ 27.10000004, 36.62794885 ] } },
{ "type": "Feature", "properties": { "id": "GLB_VOLC.22", "NUMBER_": "0102-06=", "NAME_": "KOS", "LOCATION": "Greece", "LAT": 36.829, "LON": 27.257, "ELEV": 430, "TYPE_": "Fumarole", "STATUS": "Pleistoce", "TIME_FRAME": "Q" }, "geometry": { "type": "Point", "coordinates": [ 27.25699995, 36.82694468 ] } },
{ "type": "Feature", "properties": { "id": "GLB_VOLC.23", "NUMBER_": "0103-00-", "NAME_": "KULA", "LOCATION": "Turkey", "LAT": 38.58, "LON": 28.52, "ELEV": 750, "TYPE_": "Cinder co", "STATUS": "Holocene", "TIME_FRAME": "U" }, "geometry": { "type": "Point", "coordinates": [ 28.51999995, 38.57791191 ] } },
{ "type": "Feature", "properties": { "id": "GLB_VOLC.24", "NUMBER_": "0103-001", "NAME_": "KARAPINAR", "LOCATION": "Turkey", "LAT": 37.67, "LON": 33.65, "ELEV": 1302, "TYPE_": "Cinder co", "STATUS": "Holocene", "TIME_FRAME": "D7" }, "geometry": { "type": "Point", "coordinates": [ 33.64999998, 37.6679279 ] } },
{ "type": "Feature", "properties": { "id": "GLB_VOLC.25", "NUMBER_": "0103-002", "NAME_": "HASAN DAG", "LOCATION": "Turkey", "LAT": 38.13, "LON": 34.17, "ELEV": 3253, "TYPE_": "Stratovol", "STATUS": "Holocene", "TIME_FRAME": "U" }, "geometry": { "type": "Point", "coordinates": [ 34.16999996, 38.12791963 ] } },
{ "type": "Feature", "properties": { "id": "GLB_VOLC.26", "NUMBER_": "0103-003", "NAME_": "GOLLU DAG", "LOCATION": "Turkey", "LAT": 38.25, "LON": 34.57, "ELEV": 2143, "TYPE_": "Lava dome", "STATUS": "Holocene", "TIME_FRAME": "U" }, "geometry": { "type": "Point", "coordinates": [ 34.57, 38.24791748 ] } },
{ "type": "Feature", "properties": { "id": "GLB_VOLC.27", "NUMBER_": "0103-004", "NAME_": "ACIGOL-NE", "LOCATION": "Turkey", "LAT": 38.57, "LON": 34.52, "ELEV": 1689, "TYPE_": "Maars", "STATUS": "Holocene", "TIME_FRAME": "U" }, "geometry": { "type": "Point", "coordinates": [ 34.52000007, 38.56791214 ] } },
{ "type": "Feature", "properties": { "id": "GLB_VOLC.28", "NUMBER_": "0103-01=", "NAME_": "ERCIYES D", "LOCATION": "Turkey", "LAT": 38.52, "LON": 35.48, "ELEV": 3916, "TYPE_": "Stratovol", "STATUS": "Holocene", "TIME_FRAME": "U" }, "geometry": { "type": "Point", "coordinates": [ 35.48000008, 38.51791283 ] } },
{ "type": "Feature", "properties": { "id": "GLB_VOLC.29", "NUMBER_": "0103-011", "NAME_": "KARACALID", "LOCATION": "Turkey", "LAT": 37.67, "LON": 39.83, "ELEV": 1957, "TYPE_": "Shield vo", "STATUS": "Holocene", "TIME_FRAME": "U" }, "geometry": { "type": "Point", "coordinates": [ 39.82999992, 37.6679279 ] } },
{ "type": "Feature", "properties": { "id": "GLB_VOLC.30", "NUMBER_": "0103-02=", "NAME_": "NEMRUT DA", "LOCATION": "Turkey", "LAT": 38.65, "LON": 42.02, "ELEV": 3050, "TYPE_": "Stratovol", "STATUS": "Historica", "TIME_FRAME": "D6" }, "geometry": { "type": "Point", "coordinates": [ 42.02000007, 38.64791079 ] } },
{ "type": "Feature", "properties": { "id": "GLB_VOLC.31", "NUMBER_": "0103-021", "NAME_": "SUPHAN DA", "LOCATION": "Turkey", "LAT": 38.92, "LON": 42.82, "ELEV": 4434, "TYPE_": "Stratovol", "STATUS": "Holocene", "TIME_FRAME": "U" }, "geometry": { "type": "Point", "coordinates": [ 42.81999993, 38.91790641 ] } },
{ "type": "Feature", "properties": { "id": "GLB_VOLC.32", "NUMBER_": "0103-022", "NAME_": "GIREKOL", "LOCATION": "Turkey", "LAT": 39.17, "LON": 43.33, "ELEV": 0, "TYPE_": "Unknown", "STATUS": "Holocene", "TIME_FRAME": "U" }, "geometry": { "type": "Point", "coordinates": [ 43.32999997, 39.16790263 ] } },
{ "type": "Feature", "properties": { "id": "GLB_VOLC.33", "NUMBER_": "0103-03=", "NAME_": "TENDURUK", "LOCATION": "Turkey", "LAT": 39.33, "LON": 43.83, "ELEV": 3584, "TYPE_": "Shield vo", "STATUS": "Holocene", "TIME_FRAME": "U" }, "geometry": { "type": "Point", "coordinates": [ 43.83000007, 39.3279002 ] } },
{ "type": "Feature", "properties": { "id": "GLB_VOLC.34", "NUMBER_": "0103-04-", "NAME_": "ARARAT, M", "LOCATION": "Turkey", "LAT": 39.7, "LON": 44.28, "ELEV": 5165, "TYPE_": "Stratovol", "STATUS": "Holocene", "TIME_FRAME": "U" }, "geometry": { "type": "Point", "coordinates": [ 44.28000003, 39.69789498 ] } },
{ "type": "Feature", "properties": { "id": "GLB_VOLC.35", "NUMBER_": "0103-05-", "NAME_": "KARS PLAT", "LOCATION": "Turkey", "LAT": 40.75, "LON": 42.9, "ELEV": 3000, "TYPE_": "Volcanic", "STATUS": "Holocene?", "TIME_FRAME": "?" }, "geometry": { "type": "Point", "coordinates": [ 42.8999999, 40.74788221 ] } },
{ "type": "Feature", "properties": { "id": "GLB_VOLC.36", "NUMBER_": "0104-01-", "NAME_": "ELBRUS", "LOCATION": "Russia-SW", "LAT": 43.33, "LON": 42.45, "ELEV": 5633, "TYPE_": "Stratovol", "STATUS": "Tephrochr", "TIME_FRAME": "D6" }, "geometry": { "type": "Point", "coordinates": [ 42.44999994, 43.32786247 ] } },
{ "type": "Feature", "properties": { "id": "GLB_VOLC.37", "NUMBER_": "0104-02-", "NAME_": "KASBEK", "LOCATION": "Georgia", "LAT": 42.7, "LON": 44.5, "ELEV": 5050, "TYPE_": "Stratovol", "STATUS": "Tephrochr", "TIME_FRAME": "D7" }, "geometry": { "type": "Point", "coordinates": [ 44.50000004, 42.69786566 ] } },
{ "type": "Feature", "properties": { "id": "GLB_VOLC.38", "NUMBER_": "0104-03-", "NAME_": "KABARGIN", "LOCATION": "Georgia", "LAT": 42.55, "LON": 44.0, "ELEV": 3650, "TYPE_": "Cinder co", "STATUS": "Holocene", "TIME_FRAME": "U" }, "geometry": { "type": "Point", "coordinates": [ 43.99999995, 42.54786659 ] } },
{ "type": "Feature", "properties": { "id": "GLB_VOLC.39", "NUMBER_": "0104-04-", "NAME_": "UNNAMED", "LOCATION": "Georgia", "LAT": 42.45, "LON": 44.25, "ELEV": 3750, "TYPE_": "Cinder co", "STATUS": "Holocene", "TIME_FRAME": "U" }, "geometry": { "type": "Point", "coordinates": [ 44.25, 42.44786737 ] } },
{ "type": "Feature", "properties": { "id": "GLB_VOLC.40", "NUMBER_": "0104-05-", "NAME_": "UNNAMED", "LOCATION": "Georgia", "LAT": 41.55, "LON": 43.6, "ELEV": 3400, "TYPE_": "Cones", "STATUS": "Holocene", "TIME_FRAME": "U" }, "geometry": { "type": "Point", "coordinates": [ 43.59999991, 41.54787416 ] } },
{ "type": "Feature", "properties": { "id": "GLB_VOLC.41", "NUMBER_": "0104-06-", "NAME_": "ARAGATS", "LOCATION": "Armenia", "LAT": 40.55, "LON": 44.12, "ELEV": 4090, "TYPE_": "Stratovol", "STATUS": "Holocene", "TIME_FRAME": "U" }, "geometry": { "type": "Point", "coordinates": [ 44.1200001, 40.54788432 ] } },
{ "type": "Feature", "properties": { "id": "GLB_VOLC.42", "NUMBER_": "0104-07-", "NAME_": "AGMAGAN-K", "LOCATION": "Armenia", "LAT": 40.275, "LON": 44.75, "ELEV": 3560, "TYPE_": "Volcanic", "STATUS": "Holocene", "TIME_FRAME": "U" }, "geometry": { "type": "Point", "coordinates": [ 44.75000009, 40.27288766 ] } },
{ "type": "Feature", "properties": { "id": "GLB_VOLC.43", "NUMBER_": "0104-08-", "NAME_": "DAR-ALAGE", "LOCATION": "Armenia", "LAT": 39.7, "LON": 45.542, "ELEV": 3329, "TYPE_": "Unknown", "STATUS": "Holocene", "TIME_FRAME": "U" }, "geometry": { "type": "Point", "coordinates": [ 45.54199996, 39.69789498 ] } },
{ "type": "Feature", "properties": { "id": "GLB_VOLC.44", "NUMBER_": "0201-01=", "NAME_": "TEYR, DJE", "LOCATION": "Red Sea", "LAT": 15.7, "LON": 41.742, "ELEV": 244, "TYPE_": "Stratovol", "STATUS": "Historica", "TIME_FRAME": "D3" }, "geometry": { "type": "Point", "coordinates": [ 41.74199993, 15.69888307 ] } },
{ "type": "Feature", "properties": { "id": "GLB_VOLC.45", "NUMBER_": "0201-02=", "NAME_": "ZUBAYR, J", "LOCATION": "Red Sea", "LAT": 15.08, "LON": 42.17, "ELEV": 191, "TYPE_": "Shield vo", "STATUS": "Historica", "TIME_FRAME": "D3" }, "geometry": { "type": "Point", "coordinates": [ 42.17000006, 15.07892287 ] } },
{ "type": "Feature", "properties": { "id": "GLB_VOLC.46", "NUMBER_": "0201-03=", "NAME_": "JALUA", "LOCATION": "Ethiopia", "LAT": 15.042, "LON": 39.82, "ELEV": 713, "TYPE_": "Stratovol", "STATUS": "Holocene", "TIME_FRAME": "U" }, "geometry": { "type": "Point", "coordinates": [ 39.81999998, 15.04092529 ] } },
{ "type": "Feature", "properties": { "id": "GLB_VOLC.47", "NUMBER_": "0201-04=", "NAME_": "ALID", "LOCATION": "Ethiopia", "LAT": 14.88, "LON": 39.92, "ELEV": 904, "TYPE_": "Stratovol", "STATUS": "Holocene", "TIME_FRAME": "U" }, "geometry": { "type": "Point", "coordinates": [ 39.92000004, 14.87893571 ] } },
{ "type": "Feature", "properties": { "id": "GLB_VOLC.48", "NUMBER_": "0201-041", "NAME_": "DALLOL", "LOCATION": "Ethiopia", "LAT": 14.242, "LON": 40.3, "ELEV": -48, "TYPE_": "Explosion", "STATUS": "Historica", "TIME_FRAME": "D2" }, "geometry": { "type": "Point", "coordinates": [ 40.29999998, 14.24097742 ] } },
{ "type": "Feature", "properties": { "id": "GLB_VOLC.49", "NUMBER_": "0201-05=", "NAME_": "GADA ALE", "LOCATION": "Ethiopia", "LAT": 13.975, "LON": 40.408, "ELEV": 287, "TYPE_": "Stratovol", "STATUS": "Holocene", "TIME_FRAME": "U" }, "geometry": { "type": "Point", "coordinates": [ 40.40800004, 13.97399511 ] } },
{ "type": "Feature", "properties": { "id": "GLB_VOLC.50", "NUMBER_": "0201-051", "NAME_": "CATHERINE", "LOCATION": "Ethiopia", "LAT": 13.92, "LON": 40.42, "ELEV": 100, "TYPE_": "Tuff ring", "STATUS": "Holocene", "TIME_FRAME": "U" }, "geometry": { "type": "Point", "coordinates": [ 40.41999993, 13.91899864 ] } },
{ "type": "Feature", "properties": { "id": "GLB_VOLC.51", "NUMBER_": "0201-06=", "NAME_": "ALU", "LOCATION": "Ethiopia", "LAT": 13.82, "LON": 40.55, "ELEV": 429, "TYPE_": "Fissure v", "STATUS": "Holocene", "TIME_FRAME": "U" }, "geometry": { "type": "Point", "coordinates": [ 40.55000003, 13.81900541 ] } },
{ "type": "Feature", "properties": { "id": "GLB_VOLC.52", "NUMBER_": "0201-07=", "NAME_": "DALAFFILL", "LOCATION": "Ethiopia", "LAT": 13.792, "LON": 40.55, "ELEV": 613, "TYPE_": "Stratovol", "STATUS": "Holocene", "TIME_FRAME": "U" }, "geometry": { "type": "Point", "coordinates": [ 40.55000003, 13.79100717 ] } },
{ "type": "Feature", "properties": { "id": "GLB_VOLC.53", "NUMBER_": "0201-071", "NAME_": "BORALE AL", "LOCATION": "Ethiopia", "LAT": 13.725, "LON": 40.6, "ELEV": 668, "TYPE_": "Stratovol", "STATUS": "Holocene", "TIME_FRAME": "U" }, "geometry": { "type": "Point", "coordinates": [ 40.59999995, 13.72401162 ] } },
{ "type": "Feature", "properties": { "id": "GLB_VOLC.54", "NUMBER_": "0201-08=", "NAME_": "ERTA ALE", "LOCATION": "Ethiopia", "LAT": 13.6, "LON": 40.67, "ELEV": 613, "TYPE_": "Shield vo", "STATUS": "Historica", "TIME_FRAME": "D1" }, "geometry": { "type": "Point", "coordinates": [ 40.66999998, 13.59902001 ] } },
{ "type": "Feature", "properties": { "id": "GLB_VOLC.55", "NUMBER_": "0201-09=", "NAME_": "ALE BAGU", "LOCATION": "Ethiopia", "LAT": 13.52, "LON": 40.63, "ELEV": 1031, "TYPE_": "Stratovol", "STATUS": "Holocene", "TIME_FRAME": "U" }, "geometry": { "type": "Point", "coordinates": [ 40.62999999, 13.51902537 ] } },
{ "type": "Feature", "properties": { "id": "GLB_VOLC.56", "NUMBER_": "0201-091", "NAME_": "HAYLI GUB", "LOCATION": "Ethiopia", "LAT": 13.5, "LON": 40.72, "ELEV": 521, "TYPE_": "Shield vo", "STATUS": "Holocene", "TIME_FRAME": "U" }, "geometry": { "type": "Point", "coordinates": [ 40.7199999, 13.4990266 ] } },
{ "type": "Feature", "properties": { "id": "GLB_VOLC.57", "NUMBER_": "0201-10=", "NAME_": "DUBBI", "LOCATION": "Ethiopia", "LAT": 13.58, "LON": 41.808, "ELEV": 1625, "TYPE_": "Stratovol", "STATUS": "Historica", "TIME_FRAME": "D3" }, "geometry": { "type": "Point", "coordinates": [ 41.80800006, 13.57902124 ] } },
{ "type": "Feature", "properties": { "id": "GLB_VOLC.58", "NUMBER_": "0201-101", "NAME_": "NABRO", "LOCATION": "Ethiopia", "LAT": 13.37, "LON": 41.7, "ELEV": 2218, "TYPE_": "Stratovol", "STATUS": "Holocene?", "TIME_FRAME": "?" }, "geometry": { "type": "Point", "coordinates": [ 41.7, 13.36903518 ] } },
{ "type": "Feature", "properties": { "id": "GLB_VOLC.59", "NUMBER_": "0201-102", "NAME_": "MALLAHLE", "LOCATION": "Ethiopia", "LAT": 13.27, "LON": 41.65, "ELEV": 1875, "TYPE_": "Stratovol", "STATUS": "Holocene?", "TIME_FRAME": "?" }, "geometry": { "type": "Point", "coordinates": [ 41.65000007, 13.26904202 ] } },
{ "type": "Feature", "properties": { "id": "GLB_VOLC.60", "NUMBER_": "0201-103", "NAME_": "SORKALE", "LOCATION": "Ethiopia", "LAT": 13.18, "LON": 41.725, "ELEV": 1611, "TYPE_": "Stratovol", "STATUS": "Holocene?", "TIME_FRAME": "?" }, "geometry": { "type": "Point", "coordinates": [ 41.72500007, 13.17904793 ] } },
{ "type": "Feature", "properties": { "id": "GLB_VOLC.61", "NUMBER_": "0201-104", "NAME_": "ASAVYO", "LOCATION": "Ethiopia", "LAT": 13.07, "LON": 41.6, "ELEV": 1200, "TYPE_": "Shield vo", "STATUS": "Holocene", "TIME_FRAME": "U" }, "geometry": { "type": "Point", "coordinates": [ 41.59999994, 13.0690553 ] } },
{ "type": "Feature", "properties": { "id": "GLB_VOLC.62", "NUMBER_": "0201-105", "NAME_": "MAT ALA", "LOCATION": "Ethiopia", "LAT": 13.1, "LON": 41.15, "ELEV": 523, "TYPE_": "Shield vo", "STATUS": "Holocene", "TIME_FRAME": "U" }, "geometry": { "type": "Point", "coordinates": [ 41.14999998, 13.09905333 ] } },
{ "type": "Feature", "properties": { "id": "GLB_VOLC.63", "NUMBER_": "0201-106", "NAME_": "TAT ALI", "LOCATION": "Ethiopia", "LAT": 13.28, "LON": 41.07, "ELEV": 700, "TYPE_": "Shield vo", "STATUS": "Holocene", "TIME_FRAME": "U" }, "geometry": { "type": "Point", "coordinates": [ 41.07000001, 13.27904129 ] } },
{ "type": "Feature", "properties": { "id": "GLB_VOLC.64", "NUMBER_": "0201-107", "NAME_": "BORAWLI", "LOCATION": "Ethiopia", "LAT": 13.3, "LON": 40.98, "ELEV": 812, "TYPE_": "Stratovol", "STATUS": "Holocene", "TIME_FRAME": "U" }, "geometry": { "type": "Point", "coordinates": [ 40.9800001, 13.29904005 ] } },
{ "type": "Feature", "properties": { "id": "GLB_VOLC.65", "NUMBER_": "0201-11=", "NAME_": "AFDERA", "LOCATION": "Ethiopia", "LAT": 13.08, "LON": 40.85, "ELEV": 1295, "TYPE_": "Stratovol", "STATUS": "Holocene?", "TIME_FRAME": "?" }, "geometry": { "type": "Point", "coordinates": [ 40.85, 13.07905478 ] } },
{ "type": "Feature", "properties": { "id": "GLB_VOLC.66", "NUMBER_": "0201-111", "NAME_": "MA ALALTA", "LOCATION": "Ethiopia", "LAT": 13.02, "LON": 40.2, "ELEV": 1815, "TYPE_": "Stratovol", "STATUS": "Holocene", "TIME_FRAME": "U" }, "geometry": { "type": "Point", "coordinates": [ 40.19999992, 13.01905874 ] } },
{ "type": "Feature", "properties": { "id": "GLB_VOLC.67", "NUMBER_": "0201-112", "NAME_": "ALAYTA", "LOCATION": "Ethiopia", "LAT": 12.88, "LON": 40.57, "ELEV": 1501, "TYPE_": "Shield vo", "STATUS": "Historica", "TIME_FRAME": "D2" }, "geometry": { "type": "Point", "coordinates": [ 40.56999991, 12.87906811 ] } },
{ "type": "Feature", "properties": { "id": "GLB_VOLC.68", "NUMBER_": "0201-113", "NAME_": "DABBAHU", "LOCATION": "Ethiopia", "LAT": 12.6, "LON": 40.48, "ELEV": 1442, "TYPE_": "Stratovol", "STATUS": "Holocene", "TIME_FRAME": "U" }, "geometry": { "type": "Point", "coordinates": [ 40.48000001, 12.59908715 ] } },
{ "type": "Feature", "properties": { "id": "GLB_VOLC.69", "NUMBER_": "0201-114", "NAME_": "DABBAYRA", "LOCATION": "Ethiopia", "LAT": 12.38, "LON": 40.07, "ELEV": 1302, "TYPE_": "Shield vo", "STATUS": "Holocene", "TIME_FRAME": "U" }, "geometry": { "type": "Point", "coordinates": [ 40.07000003, 12.37910206 ] } },
{ "type": "Feature", "properties": { "id": "GLB_VOLC.70", "NUMBER_": "0201-115", "NAME_": "HARARO MA", "LOCATION": "Ethiopia", "LAT": 12.17, "LON": 40.82, "ELEV": 600, "TYPE_": "Fissure v", "STATUS": "Holocene", "TIME_FRAME": "U" }, "geometry": { "type": "Point", "coordinates": [ 40.81999996, 12.16911628 ] } },
{ "type": "Feature", "properties": { "id": "GLB_VOLC.71", "NUMBER_": "0201-116", "NAME_": "GROPPO", "LOCATION": "Ethiopia", "LAT": 11.73, "LON": 40.25, "ELEV": 930, "TYPE_": "Stratovol", "STATUS": "Holocene", "TIME_FRAME": "U" }, "geometry": { "type": "Point", "coordinates": [ 40.25000005, 11.72914636 ] } },
{ "type": "Feature", "properties": { "id": "GLB_VOLC.72", "NUMBER_": "0201-12=", "NAME_": "KURUB", "LOCATION": "Ethiopia", "LAT": 11.88, "LON": 41.208, "ELEV": 625, "TYPE_": "Stratovol", "STATUS": "Holocene", "TIME_FRAME": "U" }, "geometry": { "type": "Point", "coordinates": [ 41.2079999, 11.87913607 ] } },
{ "type": "Feature", "properties": { "id": "GLB_VOLC.73", "NUMBER_": "0201-121", "NAME_": "BORAWLI C", "LOCATION": "Ethiopia", "LAT": 11.63, "LON": 41.45, "ELEV": 875, "TYPE_": "Lava dome", "STATUS": "Holocene", "TIME_FRAME": "U" }, "geometry": { "type": "Point", "coordinates": [ 41.44999995, 11.62915317 ] } },
{ "type": "Feature", "properties": { "id": "GLB_VOLC.74", "NUMBER_": "0201-122", "NAME_": "MANDA-INA", "LOCATION": "Ethiopia", "LAT": 12.38, "LON": 42.2, "ELEV": 600, "TYPE_": "Fissure v", "STATUS": "Historica", "TIME_FRAME": "D2" }, "geometry": { "type": "Point", "coordinates": [ 42.2000001, 12.37910206 ] } },
{ "type": "Feature", "properties": { "id": "GLB_VOLC.75", "NUMBER_": "0201-123", "NAME_": "MOUSA ALL", "LOCATION": "Ethiopia", "LAT": 12.47, "LON": 42.4, "ELEV": 2028, "TYPE_": "Stratovol", "STATUS": "Holocene", "TIME_FRAME": "U" }, "geometry": { "type": "Point", "coordinates": [ 42.40000001, 12.46909586 ] } },
{ "type": "Feature", "properties": { "id": "GLB_VOLC.76", "NUMBER_": "0201-124", "NAME_": "GUFA", "LOCATION": "Ethiopia", "LAT": 12.55, "LON": 42.53, "ELEV": 600, "TYPE_": "Volcanic", "STATUS": "Holocene", "TIME_FRAME": "U" }, "geometry": { "type": "Point", "coordinates": [ 42.5299999, 12.5490904 ] } },
{ "type": "Feature", "properties": { "id": "GLB_VOLC.77", "NUMBER_": "0201-125", "NAME_": "ASSAB VOL", "LOCATION": "Ethiopia", "LAT": 12.95, "LON": 42.43, "ELEV": 987, "TYPE_": "Volcanic", "STATUS": "Holocene", "TIME_FRAME": "U" }, "geometry": { "type": "Point", "coordinates": [ 42.43000005, 12.94906342 ] } },
{ "type": "Feature", "properties": { "id": "GLB_VOLC.78", "NUMBER_": "0201-126", "NAME_": "ARDOUKOBA", "LOCATION": "Djibouti", "LAT": 11.58, "LON": 42.47, "ELEV": 298, "TYPE_": "Fissure v", "STATUS": "Historica", "TIME_FRAME": "D1" }, "geometry": { "type": "Point", "coordinates": [ 42.47000003, 11.57915668 ] } },
{ "type": "Feature", "properties": { "id": "GLB_VOLC.79", "NUMBER_": "0201-127", "NAME_": "TIHO", "LOCATION": "Djibouti", "LAT": 11.53, "LON": 42.05, "ELEV": 500, "TYPE_": "Fumarole", "STATUS": "Pleistoce", "TIME_FRAME": "Q" }, "geometry": { "type": "Point", "coordinates": [ 42.0499999, 11.5291602 ] } },
{ "type": "Feature", "properties": { "id": "GLB_VOLC.80", "NUMBER_": "0201-13=", "NAME_": "GARBES", "LOCATION": "Djibouti", "LAT": 11.42, "LON": 42.2, "ELEV": 1000, "TYPE_": "Fumarole", "STATUS": "Pleistoce", "TIME_FRAME": "Q" }, "geometry": { "type": "Point", "coordinates": [ 42.2000001, 11.41916777 ] } },
{ "type": "Feature", "properties": { "id": "GLB_VOLC.81", "NUMBER_": "0201-14=", "NAME_": "BOINA", "LOCATION": "Djibouti", "LAT": 11.25, "LON": 41.83, "ELEV": 300, "TYPE_": "Fumarole", "STATUS": "Pleistoce", "TIME_FRAME": "Q" }, "geometry": { "type": "Point", "coordinates": [ 41.8300001, 11.24917943 ] } },
{ "type": "Feature", "properties": { "id": "GLB_VOLC.82", "NUMBER_": "0201-141", "NAME_": "DAMA ALI", "LOCATION": "Ethiopia", "LAT": 11.28, "LON": 41.63, "ELEV": 1068, "TYPE_": "Shield vo", "STATUS": "Holocene", "TIME_FRAME": "D5" }, "geometry": { "type": "Point", "coordinates": [ 41.62999998, 11.27917739 ] } },
{ "type": "Feature", "properties": { "id": "GLB_VOLC.83", "NUMBER_": "0201-142", "NAME_": "ASMARA", "LOCATION": "Ethiopia", "LAT": 11.27, "LON": 41.52, "ELEV": 500, "TYPE_": "Pyroclast", "STATUS": "Holocene", "TIME_FRAME": "U" }, "geometry": { "type": "Point", "coordinates": [ 41.51999997, 11.26917814 ] } },
{ "type": "Feature", "properties": { "id": "GLB_VOLC.84", "NUMBER_": "0201-15=", "NAME_": "GABILLEMA", "LOCATION": "Ethiopia", "LAT": 11.08, "LON": 41.27, "ELEV": 1459, "TYPE_": "Stratovol", "STATUS": "Holocene", "TIME_FRAME": "U" }, "geometry": { "type": "Point", "coordinates": [ 41.26999992, 11.07919111 ] } },
{ "type": "Feature", "properties": { "id": "GLB_VOLC.85", "NUMBER_": "0201-151", "NAME_": "YANGUDI", "LOCATION": "Ethiopia", "LAT": 10.58, "LON": 41.042, "ELEV": 1383, "TYPE_": "Complex v", "STATUS": "Holocene", "TIME_FRAME": "U" }, "geometry": { "type": "Point", "coordinates": [ 41.04199992, 10.579226 ] } },
{ "type": "Feature", "properties": { "id": "GLB_VOLC.86", "NUMBER_": "0201-16=", "NAME_": "AYELU", "LOCATION": "Ethiopia", "LAT": 10.082, "LON": 40.702, "ELEV": 2145, "TYPE_": "Stratovol", "STATUS": "Holocene", "TIME_FRAME": "U" }, "geometry": { "type": "Point", "coordinates": [ 40.70199996, 10.08126092 ] } },
{ "type": "Feature", "properties": { "id": "GLB_VOLC.87", "NUMBER_": "0201-17=", "NAME_": "ADWA", "LOCATION": "Ethiopia", "LAT": 10.07, "LON": 40.84, "ELEV": 1733, "TYPE_": "Stratovol", "STATUS": "Holocene", "TIME_FRAME": "U" }, "geometry": { "type": "Point", "coordinates": [ 40.84000006, 10.06926167 ] } },
{ "type": "Feature", "properties": { "id": "GLB_VOLC.88", "NUMBER_": "0201-171", "NAME_": "HERTALI", "LOCATION": "Ethiopia", "LAT": 9.78, "LON": 40.33, "ELEV": 900, "TYPE_": "Fissure v", "STATUS": "Holocene", "TIME_FRAME": "U" }, "geometry": { "type": "Point", "coordinates": [ 40.33000002, 9.77928205 ] } },
{ "type": "Feature", "properties": { "id": "GLB_VOLC.89", "NUMBER_": "0201-172", "NAME_": "LIADO HAY", "LOCATION": "Ethiopia", "LAT": 9.57, "LON": 40.28, "ELEV": 878, "TYPE_": "Maars", "STATUS": "Holocene?", "TIME_FRAME": "?" }, "geometry": { "type": "Point", "coordinates": [ 40.28000009, 9.56929702 ] } },
{ "type": "Feature", "properties": { "id": "GLB_VOLC.90", "NUMBER_": "0201-18=", "NAME_": "DOFEN", "LOCATION": "Ethiopia", "LAT": 9.35, "LON": 40.13, "ELEV": 1151, "TYPE_": "Stratovol", "STATUS": "Holocene", "TIME_FRAME": "U" }, "geometry": { "type": "Point", "coordinates": [ 40.1300001, 9.34931258 ] } },
{ "type": "Feature", "properties": { "id": "GLB_VOLC.91", "NUMBER_": "0201-19=", "NAME_": "FENTALE", "LOCATION": "Ethiopia", "LAT": 8.975, "LON": 39.93, "ELEV": 2007, "TYPE_": "Stratovol", "STATUS": "Historica", "TIME_FRAME": "D3" }, "geometry": { "type": "Point", "coordinates": [ 39.92999998, 8.97433905 ] } },
{ "type": "Feature", "properties": { "id": "GLB_VOLC.92", "NUMBER_": "0201-191", "NAME_": "BERU", "LOCATION": "Ethiopia", "LAT": 8.95, "LON": 39.75, "ELEV": 1100, "TYPE_": "Unknown", "STATUS": "Holocene", "TIME_FRAME": "U" }, "geometry": { "type": "Point", "coordinates": [ 39.74999996, 8.94934097 ] } },
{ "type": "Feature", "properties": { "id": "GLB_VOLC.93", "NUMBER_": "0201-20-", "NAME_": "KONE", "LOCATION": "Ethiopia", "LAT": 8.8, "LON": 39.692, "ELEV": 1619, "TYPE_": "Calderas", "STATUS": "Historica", "TIME_FRAME": "D3" }, "geometry": { "type": "Point", "coordinates": [ 39.69200003, 8.79935167 ] } },
{ "type": "Feature", "properties": { "id": "GLB_VOLC.94", "NUMBER_": "0201-201", "NAME_": "UNNAMED", "LOCATION": "Ethiopia", "LAT": 8.7, "LON": 39.63, "ELEV": 1300, "TYPE_": "Pyroclast", "STATUS": "Holocene", "TIME_FRAME": "U" }, "geometry": { "type": "Point", "coordinates": [ 39.63000001, 8.69935875 ] } },
{ "type": "Feature", "properties": { "id": "GLB_VOLC.95", "NUMBER_": "0201-21-", "NAME_": "BOSET-BER", "LOCATION": "Ethiopia", "LAT": 8.558, "LON": 39.475, "ELEV": 2447, "TYPE_": "Stratovol", "STATUS": "Holocene", "TIME_FRAME": "U" }, "geometry": { "type": "Point", "coordinates": [ 39.47500005, 8.55736891 ] } },
{ "type": "Feature", "properties": { "id": "GLB_VOLC.96", "NUMBER_": "0201-22-", "NAME_": "BISHOFTU", "LOCATION": "Ethiopia", "LAT": 8.78, "LON": 38.98, "ELEV": 1850, "TYPE_": "Fissure v", "STATUS": "Holocene", "TIME_FRAME": "U" }, "geometry": { "type": "Point", "coordinates": [ 38.97999992, 8.779353 ] } },
{ "type": "Feature", "properties": { "id": "GLB_VOLC.97", "NUMBER_": "0201-221", "NAME_": "UNNAMED", "LOCATION": "Ethiopia", "LAT": 8.62, "LON": 38.95, "ELEV": 1800, "TYPE_": "Fissure v", "STATUS": "Holocene", "TIME_FRAME": "U" }, "geometry": { "type": "Point", "coordinates": [ 38.95000009, 8.6193645 ] } },
{ "type": "Feature", "properties": { "id": "GLB_VOLC.98", "NUMBER_": "0201-222", "NAME_": "SODORE", "LOCATION": "Ethiopia", "LAT": 8.43, "LON": 39.35, "ELEV": 1765, "TYPE_": "Pyroclast", "STATUS": "Holocene", "TIME_FRAME": "U" }, "geometry": { "type": "Point", "coordinates": [ 39.34999992, 8.42937812 ] } },
{ "type": "Feature", "properties": { "id": "GLB_VOLC.99", "NUMBER_": "0201-23-", "NAME_": "GEDAMSA C", "LOCATION": "Ethiopia", "LAT": 8.35, "LON": 39.18, "ELEV": 1984, "TYPE_": "Caldera", "STATUS": "Holocene", "TIME_FRAME": "U" }, "geometry": { "type": "Point", "coordinates": [ 39.18000005, 8.34938389 ] } },
{ "type": "Feature", "properties": { "id": "GLB_VOLC.100", "NUMBER_": "0201-24-", "NAME_": "BORA-BERI", "LOCATION": "Ethiopia", "LAT": 8.27, "LON": 39.03, "ELEV": 2285, "TYPE_": "Pumice co", "STATUS": "Holocene", "TIME_FRAME": "U" }, "geometry": { "type": "Point", "coordinates": [ 39.03000006, 8.26938945 ] } },
{ "type": "Feature", "properties": { "id": "GLB_VOLC.101", "NUMBER_": "0201-25-", "NAME_": "TULLU MOJ", "LOCATION": "Ethiopia", "LAT": 8.158, "LON": 39.13, "ELEV": 2349, "TYPE_": "Pumice co", "STATUS": "Anthropol", "TIME_FRAME": "D2" }, "geometry": { "type": "Point", "coordinates": [ 39.12999991, 8.15739754 ] } },
{ "type": "Feature", "properties": { "id": "GLB_VOLC.102", "NUMBER_": "0201-251", "NAME_": "UNNAMED", "LOCATION": "Ethiopia", "LAT": 8.07, "LON": 39.07, "ELEV": 1800, "TYPE_": "Fissure v", "STATUS": "Holocene", "TIME_FRAME": "U" }, "geometry": { "type": "Point", "coordinates": [ 39.07000004, 8.0694039 ] } },
{ "type": "Feature", "properties": { "id": "GLB_VOLC.103", "NUMBER_": "0201-252", "NAME_": "UNNAMED", "LOCATION": "Ethiopia", "LAT": 7.95, "LON": 38.93, "ELEV": 1889, "TYPE_": "Fissure v", "STATUS": "Holocene", "TIME_FRAME": "U" }, "geometry": { "type": "Point", "coordinates": [ 38.93, 7.94941259 ] } },
{ "type": "Feature", "properties": { "id": "GLB_VOLC.104", "NUMBER_": "0201-26-", "NAME_": "BUTAJIRI-", "LOCATION": "Ethiopia", "LAT": 8.05, "LON": 38.35, "ELEV": 2281, "TYPE_": "Fissure v", "STATUS": "Holocene", "TIME_FRAME": "U" }, "geometry": { "type": "Point", "coordinates": [ 38.34999993, 8.04940525 ] } },
{ "type": "Feature", "properties": { "id": "GLB_VOLC.105", "NUMBER_": "0201-27-", "NAME_": "ALUTU", "LOCATION": "Ethiopia", "LAT": 7.77, "LON": 38.78, "ELEV": 2335, "TYPE_": "Stratovol", "STATUS": "Holocene", "TIME_FRAME": "U" }, "geometry": { "type": "Point", "coordinates": [ 38.78000001, 7.76942553 ] } },
{ "type": "Feature", "properties": { "id": "GLB_VOLC.106", "NUMBER_": "0201-28-", "NAME_": "SHALA", "LOCATION": "Ethiopia", "LAT": 7.47, "LON": 38.55, "ELEV": 2075, "TYPE_": "Stratovol", "STATUS": "Holocene", "TIME_FRAME": "U" }, "geometry": { "type": "Point", "coordinates": [ 38.55000006, 7.46944722 ] } },
{ "type": "Feature", "properties": { "id": "GLB_VOLC.107", "NUMBER_": "0201-29-", "NAME_": "CORBETTI", "LOCATION": "Ethiopia", "LAT": 7.18, "LON": 38.43, "ELEV": 2320, "TYPE_": "Caldera", "STATUS": "Holocene", "TIME_FRAME": "U" }, "geometry": { "type": "Point", "coordinates": [ 38.4299999, 7.17946818 ] } },
{ "type": "Feature", "properties": { "id": "GLB_VOLC.108", "NUMBER_": "0201-291", "NAME_": "BILATE RI", "LOCATION": "Ethiopia", "LAT": 7.07, "LON": 38.1, "ELEV": 1700, "TYPE_": "Volcanic", "STATUS": "Holocene", "TIME_FRAME": "U" }, "geometry": { "type": "Point", "coordinates": [ 38.10000009, 7.06947616 ] } },
{ "type": "Feature", "properties": { "id": "GLB_VOLC.109", "NUMBER_": "0201-292", "NAME_": "TEPI", "LOCATION": "Ethiopia", "LAT": 7.42, "LON": 35.43, "ELEV": 2728, "TYPE_": "Shield vo", "STATUS": "Holocene", "TIME_FRAME": "U" }, "geometry": { "type": "Point", "coordinates": [ 35.42999994, 7.4194507 ] } },
{ "type": "Feature", "properties": { "id": "GLB_VOLC.110", "NUMBER_": "0201-293", "NAME_": "HOBICHA C", "LOCATION": "Ethiopia", "LAT": 6.78, "LON": 37.83, "ELEV": 1800, "TYPE_": "Caldera", "STATUS": "Holocene?", "TIME_FRAME": "?" }, "geometry": { "type": "Point", "coordinates": [ 37.82999995, 6.7794972 ] } },
{ "type": "Feature", "properties": { "id": "GLB_VOLC.111", "NUMBER_": "0201-30-", "NAME_": "CHIRACHA", "LOCATION": "Ethiopia", "LAT": 6.65, "LON": 38.12, "ELEV": 1650, "TYPE_": "Stratovol", "STATUS": "Holocene", "TIME_FRAME": "U" }, "geometry": { "type": "Point", "coordinates": [ 38.11999998, 6.64950677 ] } },
{ "type": "Feature", "properties": { "id": "GLB_VOLC.112", "NUMBER_": "0201-31-", "NAME_": "TOSA SUCH", "LOCATION": "Ethiopia", "LAT": 5.92, "LON": 37.57, "ELEV": 1650, "TYPE_": "Cinder co", "STATUS": "Holocene", "TIME_FRAME": "U" }, "geometry": { "type": "Point", "coordinates": [ 37.56999996, 5.91956005 ] } },
{ "type": "Feature", "properties": { "id": "GLB_VOLC.113", "NUMBER_": "0201-311", "NAME_": "UNNAMED", "LOCATION": "Ethiopia", "LAT": 5.65, "LON": 37.67, "ELEV": 1200, "TYPE_": "Cinder co", "STATUS": "Holocene", "TIME_FRAME": "U" }, "geometry": { "type": "Point", "coordinates": [ 37.67000002, 5.64957971 ] } },
{ "type": "Feature", "properties": { "id": "GLB_VOLC.114", "NUMBER_": "0201-32-", "NAME_": "KORATH RA", "LOCATION": "Ethiopia", "LAT": 5.1, "LON": 35.88, "ELEV": 912, "TYPE_": "Tuff cone", "STATUS": "Holocene?", "TIME_FRAME": "?" }, "geometry": { "type": "Point", "coordinates": [ 35.8799999, 5.09962034 ] } },
{ "type": "Feature", "properties": { "id": "GLB_VOLC.115", "NUMBER_": "0201-33-", "NAME_": "MEGA BASA", "LOCATION": "Ethiopia", "LAT": 4.08, "LON": 37.42, "ELEV": 1067, "TYPE_": "Pyroclast", "STATUS": "Holocene", "TIME_FRAME": "U" }, "geometry": { "type": "Point", "coordinates": [ 37.41999997, 4.07969562 ] } },
{ "type": "Feature", "properties": { "id": "GLB_VOLC.116", "NUMBER_": "0202-001", "NAME_": "NORTH ISL", "LOCATION": "Africa-E", "LAT": 4.07, "LON": 36.05, "ELEV": 520, "TYPE_": "Tuff cone", "STATUS": "Holocene", "TIME_FRAME": "U" }, "geometry": { "type": "Point", "coordinates": [ 36.04999999, 4.06969642 ] } },
{ "type": "Feature", "properties": { "id": "GLB_VOLC.117", "NUMBER_": "0202-01=", "NAME_": "CENTRAL I", "LOCATION": "Africa-E", "LAT": 3.5, "LON": 36.042, "ELEV": 550, "TYPE_": "Stratovol", "STATUS": "Holocene", "TIME_FRAME": "U" }, "geometry": { "type": "Point", "coordinates": [ 36.04199999, 3.49973859 ] } },
{ "type": "Feature", "properties": { "id": "GLB_VOLC.118", "NUMBER_": "0202-02=", "NAME_": "SOUTH ISL", "LOCATION": "Africa-E", "LAT": 2.63, "LON": 36.6, "ELEV": 700, "TYPE_": "Stratovol", "STATUS": "Historica", "TIME_FRAME": "D3" }, "geometry": { "type": "Point", "coordinates": [ 36.60000001, 2.62980346 ] } },
{ "type": "Feature", "properties": { "id": "GLB_VOLC.119", "NUMBER_": "0202-021", "NAME_": "MARSABIT", "LOCATION": "Africa-E", "LAT": 2.32, "LON": 37.97, "ELEV": 1707, "TYPE_": "Shield vo", "STATUS": "Holocene?", "TIME_FRAME": "?" }, "geometry": { "type": "Point", "coordinates": [ 37.96999999, 2.31982645 ] } },
{ "type": "Feature", "properties": { "id": "GLB_VOLC.120", "NUMBER_": "0202-03=", "NAME_": "BARRIER,", "LOCATION": "Africa-E", "LAT": 2.32, "LON": 36.57, "ELEV": 1032, "TYPE_": "Shield vo", "STATUS": "Historica", "TIME_FRAME": "D2" }, "geometry": { "type": "Point", "coordinates": [ 36.56999997, 2.31982645 ] } },
{ "type": "Feature", "properties": { "id": "GLB_VOLC.121", "NUMBER_": "0202-04-", "NAME_": "NAMARUNU", "LOCATION": "Africa-E", "LAT": 1.9, "LON": 36.27, "ELEV": 817, "TYPE_": "Shield vo", "STATUS": "Tephrochr", "TIME_FRAME": "D7" }, "geometry": { "type": "Point", "coordinates": [ 36.27, 1.89985788 ] } },
{ "type": "Feature", "properties": { "id": "GLB_VOLC.122", "NUMBER_": "0202-05-", "NAME_": "SEGERERUA", "LOCATION": "Africa-E", "LAT": 1.57, "LON": 37.9, "ELEV": 699, "TYPE_": "Pyroclast", "STATUS": "Holocene", "TIME_FRAME": "U" }, "geometry": { "type": "Point", "coordinates": [ 37.89999997, 1.56988252 ] } },
{ "type": "Feature", "properties": { "id": "GLB_VOLC.123", "NUMBER_": "0202-051", "NAME_": "EMURUANGO", "LOCATION": "Africa-E", "LAT": 1.5, "LON": 36.33, "ELEV": 1328, "TYPE_": "Shield vo", "STATUS": "Radiocarb", "TIME_FRAME": "D2" }, "geometry": { "type": "Point", "coordinates": [ 36.33000008, 1.49988773 ] } },
{ "type": "Feature", "properties": { "id": "GLB_VOLC.124", "NUMBER_": "0202-052", "NAME_": "SILALI", "LOCATION": "Africa-E", "LAT": 1.15, "LON": 36.23, "ELEV": 1528, "TYPE_": "Shield vo", "STATUS": "Ar/Ar", "TIME_FRAME": "D7" }, "geometry": { "type": "Point", "coordinates": [ 36.23000001, 1.149914 ] } },
{ "type": "Feature", "properties": { "id": "GLB_VOLC.125", "NUMBER_": "0202-053", "NAME_": "PAKA", "LOCATION": "Africa-E", "LAT": 0.92, "LON": 36.18, "ELEV": 1697, "TYPE_": "Shield vo", "STATUS": "Ar/Ar", "TIME_FRAME": "D7" }, "geometry": { "type": "Point", "coordinates": [ 36.18000009, 0.91993105 ] } },
{ "type": "Feature", "properties": { "id": "GLB_VOLC.126", "NUMBER_": "0202-054", "NAME_": "KOROSI", "LOCATION": "Africa-E", "LAT": 0.77, "LON": 36.12, "ELEV": 1446, "TYPE_": "Shield vo", "STATUS": "Holocene", "TIME_FRAME": "U" }, "geometry": { "type": "Point", "coordinates": [ 36.12000001, 0.76994228 ] } },
{ "type": "Feature", "properties": { "id": "GLB_VOLC.127", "NUMBER_": "0202-055", "NAME_": "OL KOKWE", "LOCATION": "Africa-E", "LAT": 0.63, "LON": 36.08, "ELEV": 1130, "TYPE_": "Shield vo", "STATUS": "Holocene", "TIME_FRAME": "U" }, "geometry": { "type": "Point", "coordinates": [ 36.08000003, 0.62995293 ] } },
{ "type": "Feature", "properties": { "id": "GLB_VOLC.128", "NUMBER_": "0202-056", "NAME_": "NYAMBENI", "LOCATION": "Africa-E", "LAT": 0.23, "LON": 37.87, "ELEV": 750, "TYPE_": "Shield vo", "STATUS": "Holocene", "TIME_FRAME": "U" }, "geometry": { "type": "Point", "coordinates": [ 37.86999993, 0.22998283 ] } },
{ "type": "Feature", "properties": { "id": "GLB_VOLC.129", "NUMBER_": "0202-06=", "NAME_": "MENENGAI", "LOCATION": "Africa-E", "LAT": -0.2, "LON": 36.07, "ELEV": 2278, "TYPE_": "Shield vo", "STATUS": "Tephrochr", "TIME_FRAME": "D7" }, "geometry": { "type": "Point", "coordinates": [ 36.07000008, -0.19998506 ] } },
{ "type": "Feature", "properties": { "id": "GLB_VOLC.130", "NUMBER_": "0202-07=", "NAME_": "HOMA MOUN", "LOCATION": "Africa-E", "LAT": -0.38, "LON": 34.5, "ELEV": 1751, "TYPE_": "Complex v", "STATUS": "Holocene", "TIME_FRAME": "U" }, "geometry": { "type": "Point", "coordinates": [ 34.49999998, -0.37997161 ] } },
{ "type": "Feature", "properties": { "id": "GLB_VOLC.131", "NUMBER_": "0202-071", "NAME_": "ELMENTEIT", "LOCATION": "Africa-E", "LAT": -0.52, "LON": 36.27, "ELEV": 2126, "TYPE_": "Pyroclast", "STATUS": "Holocene", "TIME_FRAME": "U" }, "geometry": { "type": "Point", "coordinates": [ 36.27, -0.51996118 ] } },
{ "type": "Feature", "properties": { "id": "GLB_VOLC.132", "NUMBER_": "0202-08=", "NAME_": "EBURRU, O", "LOCATION": "Africa-E", "LAT": -0.63, "LON": 36.23, "ELEV": 2856, "TYPE_": "Complex v", "STATUS": "Holocene", "TIME_FRAME": "U" }, "geometry": { "type": "Point", "coordinates": [ 36.23000001, -0.62995295 ] } },
{ "type": "Feature", "properties": { "id": "GLB_VOLC.133", "NUMBER_": "0202-09=", "NAME_": "OLKARIA", "LOCATION": "Africa-E", "LAT": -0.904, "LON": 36.292, "ELEV": 2434, "TYPE_": "Pumice co", "STATUS": "Radiocarb", "TIME_FRAME": "D4" }, "geometry": { "type": "Point", "coordinates": [ 36.29200004, -0.90393227 ] } },
{ "type": "Feature", "properties": { "id": "GLB_VOLC.134", "NUMBER_": "0202-10=", "NAME_": "LONGONOT", "LOCATION": "Africa-E", "LAT": -0.92, "LON": 36.45, "ELEV": 2776, "TYPE_": "Shield vo", "STATUS": "Anthropol", "TIME_FRAME": "D3" }, "geometry": { "type": "Point", "coordinates": [ 36.45000002, -0.91993107 ] } },
{ "type": "Feature", "properties": { "id": "GLB_VOLC.135", "NUMBER_": "0202-11=", "NAME_": "SUSWA", "LOCATION": "Africa-E", "LAT": -1.175, "LON": 36.35, "ELEV": 2356, "TYPE_": "Shield vo", "STATUS": "Holocene", "TIME_FRAME": "U" }, "geometry": { "type": "Point", "coordinates": [ 36.34999996, -1.17491201 ] } },
{ "type": "Feature", "properties": { "id": "GLB_VOLC.136", "NUMBER_": "0202-12=", "NAME_": "LENGAI, O", "LOCATION": "Africa-E", "LAT": -2.751, "LON": 35.902, "ELEV": 2890, "TYPE_": "Stratovol", "STATUS": "Historica", "TIME_FRAME": "D1" }, "geometry": { "type": "Point", "coordinates": [ 35.90199995, -2.75079449 ] } },
{ "type": "Feature", "properties": { "id": "GLB_VOLC.137", "NUMBER_": "0202-13=", "NAME_": "CHYULU HI", "LOCATION": "Africa-E", "LAT": -2.68, "LON": 37.88, "ELEV": 2188, "TYPE_": "Volcanic", "STATUS": "Anthropol", "TIME_FRAME": "D3" }, "geometry": { "type": "Point", "coordinates": [ 37.88000008, -2.67979968 ] } },
{ "type": "Feature", "properties": { "id": "GLB_VOLC.138", "NUMBER_": "0202-15=", "NAME_": "KILIMANJA", "LOCATION": "Africa-E", "LAT": -3.07, "LON": 37.35, "ELEV": 5895, "TYPE_": "Stratovol", "STATUS": "Holocene", "TIME_FRAME": "U" }, "geometry": { "type": "Point", "coordinates": [ 37.34999995, -3.06977073 ] } },
{ "type": "Feature", "properties": { "id": "GLB_VOLC.139", "NUMBER_": "0202-16=", "NAME_": "MERU", "LOCATION": "Africa-E", "LAT": -3.25, "LON": 36.75, "ELEV": 4565, "TYPE_": "Stratovol", "STATUS": "Historica", "TIME_FRAME": "D2" }, "geometry": { "type": "Point", "coordinates": [ 36.75, -3.24975715 ] } },
{ "type": "Feature", "properties": { "id": "GLB_VOLC.140", "NUMBER_": "0202-161", "NAME_": "IGWISI HI", "LOCATION": "Africa-E", "LAT": -4.87, "LON": 31.92, "ELEV": 0, "TYPE_": "Tuff cone", "STATUS": "Holocene", "TIME_FRAME": "U" }, "geometry": { "type": "Point", "coordinates": [ 31.91999994, -4.86963715 ] } },
{ "type": "Feature", "properties": { "id": "GLB_VOLC.141", "NUMBER_": "0202-162", "NAME_": "UNNAMED", "LOCATION": "Africa-E", "LAT": -8.63, "LON": 33.57, "ELEV": 0, "TYPE_": "Pyroclast", "STATUS": "Holocene", "TIME_FRAME": "U" }, "geometry": { "type": "Point", "coordinates": [ 33.57000001, -8.62936375 ] } },
{ "type": "Feature", "properties": { "id": "GLB_VOLC.142", "NUMBER_": "0202-163", "NAME_": "SW USANGU", "LOCATION": "Africa-E", "LAT": -8.75, "LON": 33.8, "ELEV": 2179, "TYPE_": "Volcanic", "STATUS": "Holocene", "TIME_FRAME": "U" }, "geometry": { "type": "Point", "coordinates": [ 33.79999997, -8.74935513 ] } },
{ "type": "Feature", "properties": { "id": "GLB_VOLC.143", "NUMBER_": "0202-164", "NAME_": "NGOZI", "LOCATION": "Africa-E", "LAT": -8.97, "LON": 33.57, "ELEV": 2622, "TYPE_": "Caldera", "STATUS": "Holocene", "TIME_FRAME": "U" }, "geometry": { "type": "Point", "coordinates": [ 33.57000001, -8.96933945 ] } },
{ "type": "Feature", "properties": { "id": "GLB_VOLC.144", "NUMBER_": "0202-165", "NAME_": "IZUMBWE-M", "LOCATION": "Africa-E", "LAT": -8.93, "LON": 33.4, "ELEV": 1568, "TYPE_": "Pyroclast", "STATUS": "Holocene", "TIME_FRAME": "U" }, "geometry": { "type": "Point", "coordinates": [ 33.39999993, -8.92934232 ] } },
{ "type": "Feature", "properties": { "id": "GLB_VOLC.145", "NUMBER_": "0202-166", "NAME_": "RUNGWE", "LOCATION": "Africa-E", "LAT": -9.13, "LON": 33.67, "ELEV": 2961, "TYPE_": "Stratovol", "STATUS": "Holocene", "TIME_FRAME": "U" }, "geometry": { "type": "Point", "coordinates": [ 33.67000008, -9.12932821 ] } },
{ "type": "Feature", "properties": { "id": "GLB_VOLC.146", "NUMBER_": "0202-17=", "NAME_": "KIEYO", "LOCATION": "Africa-E", "LAT": -9.23, "LON": 33.78, "ELEV": 2175, "TYPE_": "Stratovol", "STATUS": "Historica", "TIME_FRAME": "D3" }, "geometry": { "type": "Point", "coordinates": [ 33.78000008, -9.22932096 ] } },
{ "type": "Feature", "properties": { "id": "GLB_VOLC.147", "NUMBER_": "0203-001", "NAME_": "RUSEKERE", "LOCATION": "Africa-C", "LAT": 0.73, "LON": 30.38, "ELEV": 1615, "TYPE_": "Tuff cone", "STATUS": "Holocene", "TIME_FRAME": "U" }, "geometry": { "type": "Point", "coordinates": [ 30.38000009, 0.7299453 ] } },
{ "type": "Feature", "properties": { "id": "GLB_VOLC.148", "NUMBER_": "0203-002", "NAME_": "FORT PORT", "LOCATION": "Africa-C", "LAT": 0.7, "LON": 30.25, "ELEV": 1524, "TYPE_": "Tuff cone", "STATUS": "Holocene", "TIME_FRAME": "U" }, "geometry": { "type": "Point", "coordinates": [ 30.24999999, 0.6999475 ] } },
{ "type": "Feature", "properties": { "id": "GLB_VOLC.149", "NUMBER_": "0203-003", "NAME_": "KYATWA VO", "LOCATION": "Africa-C", "LAT": 0.45, "LON": 30.25, "ELEV": 1430, "TYPE_": "Tuff cone", "STATUS": "Holocene", "TIME_FRAME": "U" }, "geometry": { "type": "Point", "coordinates": [ 30.24999999, 0.44996637 ] } },
{ "type": "Feature", "properties": { "id": "GLB_VOLC.150", "NUMBER_": "0203-004", "NAME_": "KATWE-KIK", "LOCATION": "Africa-C", "LAT": -0.08, "LON": 29.92, "ELEV": 1067, "TYPE_": "Tuff cone", "STATUS": "Holocene", "TIME_FRAME": "U" }, "geometry": { "type": "Point", "coordinates": [ 29.91999997, -0.07999409 ] } },
{ "type": "Feature", "properties": { "id": "GLB_VOLC.151", "NUMBER_": "0203-005", "NAME_": "BUNYARUGU", "LOCATION": "Africa-C", "LAT": -0.2, "LON": 30.08, "ELEV": 1554, "TYPE_": "Explosion", "STATUS": "Holocene", "TIME_FRAME": "U" }, "geometry": { "type": "Point", "coordinates": [ 30.0799999, -0.19998506 ] } },
{ "type": "Feature", "properties": { "id": "GLB_VOLC.152", "NUMBER_": "0203-006", "NAME_": "KATUNGA", "LOCATION": "Africa-C", "LAT": -0.47, "LON": 30.18, "ELEV": 1707, "TYPE_": "Tuff cone", "STATUS": "Holocene", "TIME_FRAME": "U" }, "geometry": { "type": "Point", "coordinates": [ 30.17999996, -0.46996478 ] } },
{ "type": "Feature", "properties": { "id": "GLB_VOLC.153", "NUMBER_": "0203-01=", "NAME_": "MAY-YA-MO", "LOCATION": "Africa-C", "LAT": -0.93, "LON": 29.33, "ELEV": 950, "TYPE_": "Fumarole", "STATUS": "Fumarolic", "TIME_FRAME": "?" }, "geometry": { "type": "Point", "coordinates": [ 29.32999997, -0.92993047 ] } },
{ "type": "Feature", "properties": { "id": "GLB_VOLC.154", "NUMBER_": "0203-02=", "NAME_": "NYAMURAGI", "LOCATION": "Africa-C", "LAT": -1.408, "LON": 29.2, "ELEV": 3058, "TYPE_": "Shield vo", "STATUS": "Historica", "TIME_FRAME": "D1" }, "geometry": { "type": "Point", "coordinates": [ 29.20000008, -1.40789457 ] } },
{ "type": "Feature", "properties": { "id": "GLB_VOLC.155", "NUMBER_": "0203-03=", "NAME_": "NYIRAGONG", "LOCATION": "Africa-C", "LAT": -1.52, "LON": 29.25, "ELEV": 3469, "TYPE_": "Stratovol", "STATUS": "Historica", "TIME_FRAME": "D1" }, "geometry": { "type": "Point", "coordinates": [ 29.25, -1.51988636 ] } },
{ "type": "Feature", "properties": { "id": "GLB_VOLC.156", "NUMBER_": "0203-04-", "NAME_": "KARISIMBI", "LOCATION": "Africa-C", "LAT": -1.5, "LON": 29.45, "ELEV": 4507, "TYPE_": "Stratovol", "STATUS": "Holocene", "TIME_FRAME": "U" }, "geometry": { "type": "Point", "coordinates": [ 29.44999991, -1.49988776 ] } },
{ "type": "Feature", "properties": { "id": "GLB_VOLC.157", "NUMBER_": "0203-05-", "NAME_": "VISOKE", "LOCATION": "Africa-C", "LAT": -1.47, "LON": 29.492, "ELEV": 3711, "TYPE_": "Stratovol", "STATUS": "Historica", "TIME_FRAME": "D2" }, "geometry": { "type": "Point", "coordinates": [ 29.49200005, -1.46988996 ] } },
{ "type": "Feature", "properties": { "id": "GLB_VOLC.158", "NUMBER_": "0203-06-", "NAME_": "MUHAVURA", "LOCATION": "Africa-C", "LAT": -1.38, "LON": 29.67, "ELEV": 4127, "TYPE_": "Stratovol", "STATUS": "Holocene", "TIME_FRAME": "U" }, "geometry": { "type": "Point", "coordinates": [ 29.66999992, -1.37989678 ] } },
{ "type": "Feature", "properties": { "id": "GLB_VOLC.159", "NUMBER_": "0203-07-", "NAME_": "BUFUMBIRA", "LOCATION": "Africa-C", "LAT": -1.23, "LON": 29.72, "ELEV": 2440, "TYPE_": "Cinder co", "STATUS": "Holocene", "TIME_FRAME": "U" }, "geometry": { "type": "Point", "coordinates": [ 29.72000006, -1.22990801 ] } },
{ "type": "Feature", "properties": { "id": "GLB_VOLC.160", "NUMBER_": "0203-08-", "NAME_": "TSHIBINDA", "LOCATION": "Africa-C", "LAT": -2.32, "LON": 28.75, "ELEV": 1460, "TYPE_": "Cinder co", "STATUS": "Holocene", "TIME_FRAME": "U" }, "geometry": { "type": "Point", "coordinates": [ 28.7499999, -2.31982647 ] } },
{ "type": "Feature", "properties": { "id": "GLB_VOLC.161", "NUMBER_": "0204-001", "NAME_": "BIU PLATE", "LOCATION": "Africa-W", "LAT": 10.75, "LON": 12.0, "ELEV": 0, "TYPE_": "Volcanic", "STATUS": "Holocene?", "TIME_FRAME": "?" }, "geometry": { "type": "Point", "coordinates": [ 11.99999999, 10.74921423 ] } },
{ "type": "Feature", "properties": { "id": "GLB_VOLC.162", "NUMBER_": "0204-002", "NAME_": "NGAOUNDER", "LOCATION": "Africa-W", "LAT": 7.25, "LON": 13.67, "ELEV": 0, "TYPE_": "Volcanic", "STATUS": "Holocene?", "TIME_FRAME": "?" }, "geometry": { "type": "Point", "coordinates": [ 13.66999994, 7.24946313 ] } },
{ "type": "Feature", "properties": { "id": "GLB_VOLC.163", "NUMBER_": "0204-003", "NAME_": "OKU VOLC", "LOCATION": "Africa-W", "LAT": 6.25, "LON": 10.5, "ELEV": 3011, "TYPE_": "Maars", "STATUS": "Radiocarb", "TIME_FRAME": "D5" }, "geometry": { "type": "Point", "coordinates": [ 10.4999999, 6.24953592 ] } },
{ "type": "Feature", "properties": { "id": "GLB_VOLC.164", "NUMBER_": "0204-004", "NAME_": "MANENGOUB", "LOCATION": "Africa-W", "LAT": 5.03, "LON": 9.83, "ELEV": 2411, "TYPE_": "Stratovol", "STATUS": "Holocene", "TIME_FRAME": "U" }, "geometry": { "type": "Point", "coordinates": [ 9.82999993, 5.02962547 ] } },
{ "type": "Feature", "properties": { "id": "GLB_VOLC.165", "NUMBER_": "0204-01=", "NAME_": "CAMEROON,", "LOCATION": "Africa-W", "LAT": 4.203, "LON": 9.17, "ELEV": 4095, "TYPE_": "Stratovol", "STATUS": "Historica", "TIME_FRAME": "D1" }, "geometry": { "type": "Point", "coordinates": [ 9.1699999, 4.20268648 ] } },
{ "type": "Feature", "properties": { "id": "GLB_VOLC.166", "NUMBER_": "0204-02-", "NAME_": "SANTA ISA", "LOCATION": "Africa-W", "LAT": 3.58, "LON": 8.75, "ELEV": 3007, "TYPE_": "Shield vo", "STATUS": "Historica", "TIME_FRAME": "D2" }, "geometry": { "type": "Point", "coordinates": [ 8.74999998, 3.57973262 ] } },
{ "type": "Feature", "properties": { "id": "GLB_VOLC.167", "NUMBER_": "0204-03-", "NAME_": "SAN JOAQU", "LOCATION": "Africa-W", "LAT": 3.35, "LON": 8.63, "ELEV": 2009, "TYPE_": "Shield vo", "STATUS": "Holocene", "TIME_FRAME": "U" }, "geometry": { "type": "Point", "coordinates": [ 8.63000003, 3.34974975 ] } },
{ "type": "Feature", "properties": { "id": "GLB_VOLC.168", "NUMBER_": "0204-04-", "NAME_": "SAN CARLO", "LOCATION": "Africa-W", "LAT": 3.35, "LON": 8.52, "ELEV": 2260, "TYPE_": "Shield vo", "STATUS": "Holocene", "TIME_FRAME": "U" }, "geometry": { "type": "Point", "coordinates": [ 8.52000003, 3.34974975 ] } },
{ "type": "Feature", "properties": { "id": "GLB_VOLC.169", "NUMBER_": "0204-05-", "NAME_": "SAO TOME", "LOCATION": "Africa-W", "LAT": 0.32, "LON": 6.72, "ELEV": 2024, "TYPE_": "Shield vo", "STATUS": "Holocene?", "TIME_FRAME": "?" }, "geometry": { "type": "Point", "coordinates": [ 6.71999997, 0.319976 ] } },
{ "type": "Feature", "properties": { "id": "GLB_VOLC.170", "NUMBER_": "0205-00-", "NAME_": "HARUJ", "LOCATION": "Africa-N", "LAT": 27.25, "LON": 17.5, "ELEV": 1200, "TYPE_": "Scoria co", "STATUS": "Holocene", "TIME_FRAME": "U" }, "geometry": { "type": "Point", "coordinates": [ 17.50000001, 27.24825534 ] } },
{ "type": "Feature", "properties": { "id": "GLB_VOLC.171", "NUMBER_": "0205-001", "NAME_": "TOH, TARS", "LOCATION": "Africa-N", "LAT": 21.33, "LON": 16.33, "ELEV": 2000, "TYPE_": "Volcanic", "STATUS": "Holocene", "TIME_FRAME": "U" }, "geometry": { "type": "Point", "coordinates": [ 16.32999994, 21.32854746 ] } },
{ "type": "Feature", "properties": { "id": "GLB_VOLC.172", "NUMBER_": "0205-01=", "NAME_": "TOUSSIDE,", "LOCATION": "Africa-N", "LAT": 21.03, "LON": 16.45, "ELEV": 3265, "TYPE_": "Stratovol", "STATUS": "Holocene", "TIME_FRAME": "U" }, "geometry": { "type": "Point", "coordinates": [ 16.4500001, 21.02856405 ] } },
{ "type": "Feature", "properties": { "id": "GLB_VOLC.173", "NUMBER_": "0205-02=", "NAME_": "VOON, TAR", "LOCATION": "Africa-N", "LAT": 20.92, "LON": 17.28, "ELEV": 3100, "TYPE_": "Stratovol", "STATUS": "Fumarolic", "TIME_FRAME": "U" }, "geometry": { "type": "Point", "coordinates": [ 17.28, 20.91857016 ] } },
{ "type": "Feature", "properties": { "id": "GLB_VOLC.174", "NUMBER_": "0205-021", "NAME_": "KOUSSI, E", "LOCATION": "Africa-N", "LAT": 19.8, "LON": 18.53, "ELEV": 3415, "TYPE_": "Stratovol", "STATUS": "Holocene", "TIME_FRAME": "U" }, "geometry": { "type": "Point", "coordinates": [ 18.53000004, 19.79863368 ] } },
{ "type": "Feature", "properties": { "id": "GLB_VOLC.175", "NUMBER_": "0205-03-", "NAME_": "MARRA, JE", "LOCATION": "Africa-N", "LAT": 12.95, "LON": 24.27, "ELEV": 3042, "TYPE_": "Volcanic", "STATUS": "Radiocarb", "TIME_FRAME": "D7" }, "geometry": { "type": "Point", "coordinates": [ 24.26999996, 12.94906342 ] } },
{ "type": "Feature", "properties": { "id": "GLB_VOLC.176", "NUMBER_": "0205-04-", "NAME_": "KUTUM VOL", "LOCATION": "Africa-N", "LAT": 14.5, "LON": 25.8, "ELEV": 0, "TYPE_": "Scoria co", "STATUS": "Holocene?", "TIME_FRAME": "?" }, "geometry": { "type": "Point", "coordinates": [ 25.80000008, 14.49896054 ] } },
{ "type": "Feature", "properties": { "id": "GLB_VOLC.177", "NUMBER_": "0205-05-", "NAME_": "MEIDOB VO", "LOCATION": "Africa-N", "LAT": 15.13, "LON": 26.17, "ELEV": 1000, "TYPE_": "Scoria co", "STATUS": "Holocene", "TIME_FRAME": "U" }, "geometry": { "type": "Point", "coordinates": [ 26.17000008, 15.12891957 ] } },
{ "type": "Feature", "properties": { "id": "GLB_VOLC.178", "NUMBER_": "0205-06-", "NAME_": "BAYUDA VO", "LOCATION": "Africa-N", "LAT": 18.33, "LON": 32.75, "ELEV": 0, "TYPE_": "Cinder co", "STATUS": "Radiocarb", "TIME_FRAME": "D6" }, "geometry": { "type": "Point", "coordinates": [ 32.75000006, 18.32872009 ] } },
{ "type": "Feature", "properties": { "id": "GLB_VOLC.179", "NUMBER_": "0205-07-", "NAME_": "UMM MARAF", "LOCATION": "Africa-N", "LAT": 18.2, "LON": 33.8, "ELEV": 0, "TYPE_": "Scoria co", "STATUS": "Holocene?", "TIME_FRAME": "?" }, "geometry": { "type": "Point", "coordinates": [ 33.79999997, 18.1987278 ] } },
{ "type": "Feature", "properties": { "id": "GLB_VOLC.180", "NUMBER_": "0300-01-", "NAME_": "SHARAT KO", "LOCATION": "Syria", "LAT": 36.53, "LON": 40.85, "ELEV": 534, "TYPE_": "Volcanic", "STATUS": "Holocene", "TIME_FRAME": "U" }, "geometry": { "type": "Point", "coordinates": [ 40.85, 36.52795094 ] } },
{ "type": "Feature", "properties": { "id": "GLB_VOLC.181", "NUMBER_": "0300-02-", "NAME_": "UNNAMED", "LOCATION": "Syria", "LAT": 36.67, "LON": 37.0, "ELEV": 0, "TYPE_": "Unknown", "STATUS": "Historica", "TIME_FRAME": "D6" }, "geometry": { "type": "Point", "coordinates": [ 37.00000005, 36.66794798 ] } },
{ "type": "Feature", "properties": { "id": "GLB_VOLC.182", "NUMBER_": "0300-03-", "NAME_": "UNNAMED", "LOCATION": "Syria", "LAT": 33.308, "LON": 36.925, "ELEV": 945, "TYPE_": "Volcanic", "STATUS": "Holocene", "TIME_FRAME": "U" }, "geometry": { "type": "Point", "coordinates": [ 36.92500005, 33.30603366 ] } },
{ "type": "Feature", "properties": { "id": "GLB_VOLC.183", "NUMBER_": "0300-04-", "NAME_": "UNNAMED", "LOCATION": "Syria", "LAT": 33.15, "LON": 36.258, "ELEV": 1197, "TYPE_": "Volcanic", "STATUS": "Holocene", "TIME_FRAME": "U" }, "geometry": { "type": "Point", "coordinates": [ 36.2579999, 33.14803838 ] } },
{ "type": "Feature", "properties": { "id": "GLB_VOLC.184", "NUMBER_": "0300-05-", "NAME_": "ES SAFA", "LOCATION": "Syria", "LAT": 33.08, "LON": 37.15, "ELEV": 0, "TYPE_": "Volcanic", "STATUS": "Historica", "TIME_FRAME": "D3" }, "geometry": { "type": "Point", "coordinates": [ 37.15000003, 33.07804046 ] } },
{ "type": "Feature", "properties": { "id": "GLB_VOLC.185", "NUMBER_": "0300-06-", "NAME_": "UNNAMED", "LOCATION": "Syria", "LAT": 32.658, "LON": 36.425, "ELEV": 1436, "TYPE_": "Volcanic", "STATUS": "Holocene", "TIME_FRAME": "U" }, "geometry": { "type": "Point", "coordinates": [ 36.42499996, 32.65605331 ] } },
{ "type": "Feature", "properties": { "id": "GLB_VOLC.186", "NUMBER_": "0301-01=", "NAME_": "RAHAH, HA", "LOCATION": "Arabia-W", "LAT": 27.8, "LON": 36.17, "ELEV": 1660, "TYPE_": "Volcanic", "STATUS": "Anthropol", "TIME_FRAME": "U" }, "geometry": { "type": "Point", "coordinates": [ 36.16999994, 27.79823184 ] } },
{ "type": "Feature", "properties": { "id": "GLB_VOLC.187", "NUMBER_": "0301-02=", "NAME_": "'UWAYRID,", "LOCATION": "Arabia-W", "LAT": 27.08, "LON": 37.25, "ELEV": 1900, "TYPE_": "Volcanic", "STATUS": "Anthropol", "TIME_FRAME": "D6" }, "geometry": { "type": "Point", "coordinates": [ 37.2500001, 27.07826287 ] } },
{ "type": "Feature", "properties": { "id": "GLB_VOLC.188", "NUMBER_": "0301-04-", "NAME_": "LUNAYYIR,", "LOCATION": "Arabia-W", "LAT": 25.17, "LON": 37.75, "ELEV": 1370, "TYPE_": "Volcanic", "STATUS": "Historica", "TIME_FRAME": "D6" }, "geometry": { "type": "Point", "coordinates": [ 37.74999998, 25.16835011 ] } },
{ "type": "Feature", "properties": { "id": "GLB_VOLC.189", "NUMBER_": "0301-05=", "NAME_": "ITHNAYN,", "LOCATION": "Arabia-W", "LAT": 26.58, "LON": 40.2, "ELEV": 1625, "TYPE_": "Volcanic", "STATUS": "Holocene", "TIME_FRAME": "U" }, "geometry": { "type": "Point", "coordinates": [ 40.19999992, 26.57828489 ] } },
{ "type": "Feature", "properties": { "id": "GLB_VOLC.190", "NUMBER_": "0301-06=", "NAME_": "KHAYBAR,", "LOCATION": "Arabia-W", "LAT": 25.0, "LON": 39.92, "ELEV": 2093, "TYPE_": "Volcanic", "STATUS": "Historica", "TIME_FRAME": "D6" }, "geometry": { "type": "Point", "coordinates": [ 39.92000004, 24.99835816 ] } },
{ "type": "Feature", "properties": { "id": "GLB_VOLC.191", "NUMBER_": "0301-07=", "NAME_": "RAHAT, HA", "LOCATION": "Arabia-W", "LAT": 23.08, "LON": 39.78, "ELEV": 1744, "TYPE_": "Volcanic", "STATUS": "Historica", "TIME_FRAME": "D6" }, "geometry": { "type": "Point", "coordinates": [ 39.77999999, 23.07845397 ] } },
{ "type": "Feature", "properties": { "id": "GLB_VOLC.192", "NUMBER_": "0301-071", "NAME_": "KISHB, HA", "LOCATION": "Arabia-W", "LAT": 22.8, "LON": 41.38, "ELEV": 1475, "TYPE_": "Volcanic", "STATUS": "Holocene", "TIME_FRAME": "U" }, "geometry": { "type": "Point", "coordinates": [ 41.37999993, 22.79846866 ] } },
{ "type": "Feature", "properties": { "id": "GLB_VOLC.193", "NUMBER_": "0301-08-", "NAME_": "YAR, JABA", "LOCATION": "Arabia-W", "LAT": 17.05, "LON": 42.83, "ELEV": 305, "TYPE_": "Volcanic", "STATUS": "Historica", "TIME_FRAME": "D3" }, "geometry": { "type": "Point", "coordinates": [ 42.83000009, 17.04879805 ] } },
{ "type": "Feature", "properties": { "id": "GLB_VOLC.194", "NUMBER_": "0301-09-", "NAME_": "ARHAB, HA", "LOCATION": "Arabia-S", "LAT": 15.63, "LON": 44.08, "ELEV": 3100, "TYPE_": "Volcanic", "STATUS": "Historica", "TIME_FRAME": "D6" }, "geometry": { "type": "Point", "coordinates": [ 44.07999991, 15.62888752 ] } },
{ "type": "Feature", "properties": { "id": "GLB_VOLC.195", "NUMBER_": "0301-10-", "NAME_": "MARHA, JA", "LOCATION": "Arabia-S", "LAT": 15.28, "LON": 44.22, "ELEV": 2650, "TYPE_": "Tuff cone", "STATUS": "Holocene", "TIME_FRAME": "U" }, "geometry": { "type": "Point", "coordinates": [ 44.21999996, 15.27890988 ] } },
{ "type": "Feature", "properties": { "id": "GLB_VOLC.196", "NUMBER_": "0301-11-", "NAME_": "HAYLAN, J", "LOCATION": "Arabia-S", "LAT": 15.43, "LON": 44.78, "ELEV": 1550, "TYPE_": "Volcanic", "STATUS": "Anthropol", "TIME_FRAME": "D7" }, "geometry": { "type": "Point", "coordinates": [ 44.77999992, 15.42890022 ] } },
{ "type": "Feature", "properties": { "id": "GLB_VOLC.197", "NUMBER_": "0301-12-", "NAME_": "DHAMAR, H", "LOCATION": "Arabia-S", "LAT": 14.57, "LON": 44.67, "ELEV": 3500, "TYPE_": "Volcanic", "STATUS": "Historica", "TIME_FRAME": "D2" }, "geometry": { "type": "Point", "coordinates": [ 44.66999992, 14.56895599 ] } },
{ "type": "Feature", "properties": { "id": "GLB_VOLC.198", "NUMBER_": "0301-13-", "NAME_": "HAMMAN DE", "LOCATION": "Arabia-S", "LAT": 14.05, "LON": 44.75, "ELEV": 0, "TYPE_": "Cone", "STATUS": "Anthropol", "TIME_FRAME": "U" }, "geometry": { "type": "Point", "coordinates": [ 44.75000009, 14.04899015 ] } },
{ "type": "Feature", "properties": { "id": "GLB_VOLC.199", "NUMBER_": "0301-15-", "NAME_": "UNNAMED", "LOCATION": "Arabia-S", "LAT": 12.25, "LON": 45.0, "ELEV": 0, "TYPE_": "Submarine", "STATUS": "Uncertain", "TIME_FRAME": "?" }, "geometry": { "type": "Point", "coordinates": [ 44.99999993, 12.2491108 ] } },
{ "type": "Feature", "properties": { "id": "GLB_VOLC.200", "NUMBER_": "0301-16-", "NAME_": "SAWAD, HA", "LOCATION": "Arabia-S", "LAT": 13.58, "LON": 46.12, "ELEV": 1737, "TYPE_": "Volcanic", "STATUS": "Historica", "TIME_FRAME": "D6" }, "geometry": { "type": "Point", "coordinates": [ 46.12000008, 13.57902124 ] } },
{ "type": "Feature", "properties": { "id": "GLB_VOLC.201", "NUMBER_": "0301-17-", "NAME_": "BAL HAF,", "LOCATION": "Arabia-S", "LAT": 14.05, "LON": 48.33, "ELEV": 233, "TYPE_": "Volcanic", "STATUS": "Holocene", "TIME_FRAME": "U" }, "geometry": { "type": "Point", "coordinates": [ 48.3299999, 14.04899015 ] } },
{ "type": "Feature", "properties": { "id": "GLB_VOLC.202", "NUMBER_": "0301-18-", "NAME_": "BIR BORHU", "LOCATION": "Arabia-S", "LAT": 15.55, "LON": 50.63, "ELEV": 0, "TYPE_": "Volcanic", "STATUS": "Holocene?", "TIME_FRAME": "?" }, "geometry": { "type": "Point", "coordinates": [ 50.63000006, 15.54889247 ] } },
{ "type": "Feature", "properties": { "id": "GLB_VOLC.203", "NUMBER_": "0302-01-", "NAME_": "DAMAVAND", "LOCATION": "Iran", "LAT": 35.951, "LON": 52.109, "ELEV": 5670, "TYPE_": "Stratovol", "STATUS": "Holocene", "TIME_FRAME": "U" }, "geometry": { "type": "Point", "coordinates": [ 52.10899997, 35.94896392 ] } },
{ "type": "Feature", "properties": { "id": "GLB_VOLC.204", "NUMBER_": "0302-02-", "NAME_": "QAL'EH HA", "LOCATION": "Iran", "LAT": 29.4, "LON": 57.57, "ELEV": 0, "TYPE_": "Maars", "STATUS": "Holocene?", "TIME_FRAME": "?" }, "geometry": { "type": "Point", "coordinates": [ 57.57000009, 29.3981671 ] } },
{ "type": "Feature", "properties": { "id": "GLB_VOLC.205", "NUMBER_": "0302-03-", "NAME_": "BAZMAN", "LOCATION": "Iran", "LAT": 28.07, "LON": 60.0, "ELEV": 3490, "TYPE_": "Stratovol", "STATUS": "Fumarolic", "TIME_FRAME": "U" }, "geometry": { "type": "Point", "coordinates": [ 59.99999993, 28.06822047 ] } },
{ "type": "Feature", "properties": { "id": "GLB_VOLC.206", "NUMBER_": "0302-04-", "NAME_": "UNNAMED", "LOCATION": "Iran", "LAT": 28.17, "LON": 60.67, "ELEV": 0, "TYPE_": "Volcanic", "STATUS": "Holocene?", "TIME_FRAME": "?" }, "geometry": { "type": "Point", "coordinates": [ 60.6699999, 28.16821638 ] } },
{ "type": "Feature", "properties": { "id": "GLB_VOLC.207", "NUMBER_": "0302-05-", "NAME_": "TAFTAN", "LOCATION": "Iran", "LAT": 28.6, "LON": 61.6, "ELEV": 4050, "TYPE_": "Stratovol", "STATUS": "Holocene", "TIME_FRAME": "U" }, "geometry": { "type": "Point", "coordinates": [ 61.60000007, 28.59819887 ] } },
{ "type": "Feature", "properties": { "id": "GLB_VOLC.208", "NUMBER_": "0302-06-", "NAME_": "DACHT-I-N", "LOCATION": "Afghanist", "LAT": 33.95, "LON": 67.92, "ELEV": 3800, "TYPE_": "Lava dome", "STATUS": "Holocene", "TIME_FRAME": "U" }, "geometry": { "type": "Point", "coordinates": [ 67.92000006, 33.94801526 ] } },
{ "type": "Feature", "properties": { "id": "GLB_VOLC.209", "NUMBER_": "0302-07-", "NAME_": "VAKAK GRO", "LOCATION": "Afghanist", "LAT": 34.25, "LON": 67.97, "ELEV": 3190, "TYPE_": "Volcanic", "STATUS": "Holocene", "TIME_FRAME": "U" }, "geometry": { "type": "Point", "coordinates": [ 67.96999998, 34.24800694 ] } },
{ "type": "Feature", "properties": { "id": "GLB_VOLC.210", "NUMBER_": "0303-001", "NAME_": "GRILLE, L", "LOCATION": "Indian O.", "LAT": -11.47, "LON": 43.33, "ELEV": 1087, "TYPE_": "Shield vo", "STATUS": "Holocene", "TIME_FRAME": "U" }, "geometry": { "type": "Point", "coordinates": [ 43.32999997, -11.46916427 ] } },
{ "type": "Feature", "properties": { "id": "GLB_VOLC.211", "NUMBER_": "0303-01=", "NAME_": "KARTHALA", "LOCATION": "Indian O.", "LAT": -11.75, "LON": 43.38, "ELEV": 2361, "TYPE_": "Shield vo", "STATUS": "Historica", "TIME_FRAME": "D1" }, "geometry": { "type": "Point", "coordinates": [ 43.3799999, -11.74914511 ] } },
{ "type": "Feature", "properties": { "id": "GLB_VOLC.212", "NUMBER_": "0303-02=", "NAME_": "FOURNAISE", "LOCATION": "Indian O.", "LAT": -21.229, "LON": 55.713, "ELEV": 2631, "TYPE_": "Shield vo", "STATUS": "Historica", "TIME_FRAME": "D1" }, "geometry": { "type": "Point", "coordinates": [ 55.71299998, -21.2275529 ] } },
{ "type": "Feature", "properties": { "id": "GLB_VOLC.213", "NUMBER_": "0303-03-", "NAME_": "AMBRE-BOB", "LOCATION": "Madagasca", "LAT": -12.48, "LON": 49.1, "ELEV": 1475, "TYPE_": "Volcanic", "STATUS": "Holocene", "TIME_FRAME": "U" }, "geometry": { "type": "Point", "coordinates": [ 49.09999994, -12.47909514 ] } },
{ "type": "Feature", "properties": { "id": "GLB_VOLC.214", "NUMBER_": "0303-04-", "NAME_": "NOSY-BE", "LOCATION": "Madagasca", "LAT": -13.32, "LON": 48.48, "ELEV": 214, "TYPE_": "Cinder co", "STATUS": "Holocene", "TIME_FRAME": "U" }, "geometry": { "type": "Point", "coordinates": [ 48.4800001, -13.31903862 ] } },
{ "type": "Feature", "properties": { "id": "GLB_VOLC.215", "NUMBER_": "0303-05-", "NAME_": "ANKAIZINA", "LOCATION": "Madagasca", "LAT": -14.3, "LON": 48.67, "ELEV": 2878, "TYPE_": "Cinder co", "STATUS": "Holocene", "TIME_FRAME": "U" }, "geometry": { "type": "Point", "coordinates": [ 48.67000007, -14.29897376 ] } },
{ "type": "Feature", "properties": { "id": "GLB_VOLC.216", "NUMBER_": "0303-06-", "NAME_": "ITASY VOL", "LOCATION": "Madagasca", "LAT": -19.0, "LON": 46.77, "ELEV": 1800, "TYPE_": "Scoria co", "STATUS": "Radiocarb", "TIME_FRAME": "D7" }, "geometry": { "type": "Point", "coordinates": [ 46.76999995, -18.99868024 ] } },
{ "type": "Feature", "properties": { "id": "GLB_VOLC.217", "NUMBER_": "0303-07-", "NAME_": "ANKARATRA", "LOCATION": "Madagasca", "LAT": -19.4, "LON": 47.2, "ELEV": 2644, "TYPE_": "Cinder co", "STATUS": "Holocene", "TIME_FRAME": "U" }, "geometry": { "type": "Point", "coordinates": [ 47.20000003, -19.39865684 ] } },
{ "type": "Feature", "properties": { "id": "GLB_VOLC.218", "NUMBER_": "0304-01=", "NAME_": "HEARD", "LOCATION": "Indian O.", "LAT": -53.106, "LON": 73.513, "ELEV": 2745, "TYPE_": "Stratovol", "STATUS": "Historica", "TIME_FRAME": "D1" }, "geometry": { "type": "Point", "coordinates": [ 73.51300001, -53.10394534 ] } },
{ "type": "Feature", "properties": { "id": "GLB_VOLC.219", "NUMBER_": "0304-02=", "NAME_": "KERGUELEN", "LOCATION": "Indian O.", "LAT": -49.58, "LON": 69.5, "ELEV": 1840, "TYPE_": "Stratovol", "STATUS": "Holocene", "TIME_FRAME": "U" }, "geometry": { "type": "Point", "coordinates": [ 69.5000001, -49.57788711 ] } },
{ "type": "Feature", "properties": { "id": "GLB_VOLC.220", "NUMBER_": "0304-03=", "NAME_": "ST. PAUL", "LOCATION": "Indian O.", "LAT": -38.72, "LON": 77.53, "ELEV": 268, "TYPE_": "Stratovol", "STATUS": "Historica", "TIME_FRAME": "D4" }, "geometry": { "type": "Point", "coordinates": [ 77.53000003, -38.7179097 ] } },
{ "type": "Feature", "properties": { "id": "GLB_VOLC.221", "NUMBER_": "0304-04-", "NAME_": "AMSTERDAM", "LOCATION": "Indian O.", "LAT": -37.83, "LON": 77.52, "ELEV": 881, "TYPE_": "Stratovol", "STATUS": "Holocene", "TIME_FRAME": "U" }, "geometry": { "type": "Point", "coordinates": [ 77.52000008, -37.82792487 ] } },
{ "type": "Feature", "properties": { "id": "GLB_VOLC.222", "NUMBER_": "0304-05-", "NAME_": "POSSESSIO", "LOCATION": "Indian O.", "LAT": -46.42, "LON": 51.63, "ELEV": 934, "TYPE_": "Stratovol", "STATUS": "Holocene", "TIME_FRAME": "U" }, "geometry": { "type": "Point", "coordinates": [ 51.63000004, -46.41786195 ] } },
{ "type": "Feature", "properties": { "id": "GLB_VOLC.223", "NUMBER_": "0304-06-", "NAME_": "COCHONS,", "LOCATION": "Indian O.", "LAT": -46.1, "LON": 50.23, "ELEV": 775, "TYPE_": "Stratovol", "STATUS": "Holocene", "TIME_FRAME": "U" }, "geometry": { "type": "Point", "coordinates": [ 50.23000002, -46.09786079 ] } },
{ "type": "Feature", "properties": { "id": "GLB_VOLC.224", "NUMBER_": "0304-07-", "NAME_": "PRINCE ED", "LOCATION": "Indian O.", "LAT": -46.63, "LON": 37.95, "ELEV": 672, "TYPE_": "Shield vo", "STATUS": "Holocene", "TIME_FRAME": "U" }, "geometry": { "type": "Point", "coordinates": [ 37.9499999, -46.62786288 ] } },
{ "type": "Feature", "properties": { "id": "GLB_VOLC.225", "NUMBER_": "0304-08-", "NAME_": "MARION IS", "LOCATION": "Indian O.", "LAT": -46.9, "LON": 37.75, "ELEV": 1230, "TYPE_": "Shield vo", "STATUS": "Historica", "TIME_FRAME": "D1" }, "geometry": { "type": "Point", "coordinates": [ 37.74999998, -46.89786409 ] } },
{ "type": "Feature", "properties": { "id": "GLB_VOLC.226", "NUMBER_": "0305-01=", "NAME_": "UNNAMED", "LOCATION": "Indian O.", "LAT": 11.75, "LON": 80.75, "ELEV": 0, "TYPE_": "Submarine", "STATUS": "Uncertain", "TIME_FRAME": "?" }, "geometry": { "type": "Point", "coordinates": [ 80.74999999, 11.74914509 ] } },
{ "type": "Feature", "properties": { "id": "GLB_VOLC.227", "NUMBER_": "0401-01=", "NAME_": "KAIKOHE-B", "LOCATION": "New Z", "LAT": -35.3, "LON": 173.9, "ELEV": 388, "TYPE_": "Volcanic", "STATUS": "Radiocarb", "TIME_FRAME": "D6" }, "geometry": { "type": "Point", "coordinates": [ 173.899999900000012, -35.29797956 ] } },
{ "type": "Feature", "properties": { "id": "GLB_VOLC.228", "NUMBER_": "0401-011", "NAME_": "WHANGAREI", "LOCATION": "New Zeala", "LAT": -35.75, "LON": 174.27, "ELEV": 397, "TYPE_": "Cinder co", "STATUS": "Holocene?", "TIME_FRAME": "?" }, "geometry": { "type": "Point", "coordinates": [ 174.269999899999988, -35.74796865 ] } },
{ "type": "Feature", "properties": { "id": "GLB_VOLC.229", "NUMBER_": "0401-02=", "NAME_": "AUCKLAND", "LOCATION": "New Zeala", "LAT": -36.9, "LON": 174.87, "ELEV": 260, "TYPE_": "Volcanic", "STATUS": "Radiocarb", "TIME_FRAME": "D6" }, "geometry": { "type": "Point", "coordinates": [ 174.87000006, -36.89794311 ] } },
{ "type": "Feature", "properties": { "id": "GLB_VOLC.230", "NUMBER_": "0401-021", "NAME_": "MAYOR ISL", "LOCATION": "New Zeala", "LAT": -37.28, "LON": 176.25, "ELEV": 355, "TYPE_": "Shield vo", "STATUS": "Radiocarb", "TIME_FRAME": "D7" }, "geometry": { "type": "Point", "coordinates": [ 176.249999980000013, -37.27793556 ] } },
{ "type": "Feature", "properties": { "id": "GLB_VOLC.231", "NUMBER_": "0401-03=", "NAME_": "EGMONT", "LOCATION": "New Zeala", "LAT": -39.3, "LON": 174.07, "ELEV": 2518, "TYPE_": "Stratovol", "STATUS": "Radiocarb", "TIME_FRAME": "D4" }, "geometry": { "type": "Point", "coordinates": [ 174.069999990000014, -39.29790062 ] } },
{ "type": "Feature", "properties": { "id": "GLB_VOLC.232", "NUMBER_": "0401-04=", "NAME_": "WHITE ISL", "LOCATION": "New Zeala", "LAT": -37.52, "LON": 177.18, "ELEV": 321, "TYPE_": "Stratovol", "STATUS": "Historica", "TIME_FRAME": "D1" }, "geometry": { "type": "Point", "coordinates": [ 177.17999995, -37.51793078 ] } },
{ "type": "Feature", "properties": { "id": "GLB_VOLC.233", "NUMBER_": "0401-041", "NAME_": "WHALE ISL", "LOCATION": "New Zeala", "LAT": -37.858, "LON": 176.98, "ELEV": 348, "TYPE_": "Complex v", "STATUS": "Pleistoce", "TIME_FRAME": "Q" }, "geometry": { "type": "Point", "coordinates": [ 176.980000030000014, -37.85592445 ] } },
{ "type": "Feature", "properties": { "id": "GLB_VOLC.234", "NUMBER_": "0401-042", "NAME_": "ROTORUA", "LOCATION": "New Zeala", "LAT": -38.08, "LON": 176.27, "ELEV": 757, "TYPE_": "Caldera", "STATUS": "Pleistoce", "TIME_FRAME": "Q" }, "geometry": { "type": "Point", "coordinates": [ 176.270000079999988, -38.0779204 ] } },
{ "type": "Feature", "properties": { "id": "GLB_VOLC.235", "NUMBER_": "0401-05=", "NAME_": "OKATAINA", "LOCATION": "New Zeala", "LAT": -38.12, "LON": 176.5, "ELEV": 1111, "TYPE_": "Lava dome", "STATUS": "Historica", "TIME_FRAME": "D1" }, "geometry": { "type": "Point", "coordinates": [ 176.50000003, -38.11791968 ] } },
{ "type": "Feature", "properties": { "id": "GLB_VOLC.236", "NUMBER_": "0401-06-", "NAME_": "REPOROA", "LOCATION": "New Zeala", "LAT": -38.42, "LON": 176.33, "ELEV": 592, "TYPE_": "Caldera", "STATUS": "Tephrochr", "TIME_FRAME": "D6" }, "geometry": { "type": "Point", "coordinates": [ 176.32999995, -38.41791447 ] } },
{ "type": "Feature", "properties": { "id": "GLB_VOLC.237", "NUMBER_": "0401-061", "NAME_": "MAROA", "LOCATION": "New Zeala", "LAT": -38.42, "LON": 176.08, "ELEV": 1156, "TYPE_": "Calderas", "STATUS": "Tephrochr", "TIME_FRAME": "D6" }, "geometry": { "type": "Point", "coordinates": [ 176.0799999, -38.41791447 ] } },
{ "type": "Feature", "properties": { "id": "GLB_VOLC.238", "NUMBER_": "0401-07=", "NAME_": "TAUPO", "LOCATION": "New Zeala", "LAT": -38.82, "LON": 176.0, "ELEV": 760, "TYPE_": "Caldera", "STATUS": "Radiocarb", "TIME_FRAME": "D6" }, "geometry": { "type": "Point", "coordinates": [ 175.99999993, -38.81790795 ] } },
{ "type": "Feature", "properties": { "id": "GLB_VOLC.239", "NUMBER_": "0401-08=", "NAME_": "TONGARIRO", "LOCATION": "New Zeala", "LAT": -39.13, "LON": 175.642, "ELEV": 1978, "TYPE_": "Stratovol", "STATUS": "Historica", "TIME_FRAME": "D1" }, "geometry": { "type": "Point", "coordinates": [ 175.64200004, -39.12790327 ] } },
{ "type": "Feature", "properties": { "id": "GLB_VOLC.240", "NUMBER_": "0401-10=", "NAME_": "RUAPEHU", "LOCATION": "New Zeala", "LAT": -39.28, "LON": 175.57, "ELEV": 2797, "TYPE_": "Stratovol", "STATUS": "Historica", "TIME_FRAME": "D1" }, "geometry": { "type": "Point", "coordinates": [ 175.57000007, -39.27790103 ] } },
{ "type": "Feature", "properties": { "id": "GLB_VOLC.241", "NUMBER_": "0401-11-", "NAME_": "RUMBLE I", "LOCATION": "New Zeala", "LAT": -35.5, "LON": 178.875, "ELEV": -1100, "TYPE_": "Submarine", "STATUS": "Uncertain", "TIME_FRAME": "?" }, "geometry": { "type": "Point", "coordinates": [ 178.87499997, -35.49797458 ] } },
{ "type": "Feature", "properties": { "id": "GLB_VOLC.242", "NUMBER_": "0401-12-", "NAME_": "RUMBLE II", "LOCATION": "New Zeala", "LAT": -35.43, "LON": 178.65, "ELEV": -880, "TYPE_": "Submarine", "STATUS": "Uncertain", "TIME_FRAME": "?" }, "geometry": { "type": "Point", "coordinates": [ 178.64999999, -35.42797626 ] } },
{ "type": "Feature", "properties": { "id": "GLB_VOLC.243", "NUMBER_": "0401-13-", "NAME_": "RUMBLE II", "LOCATION": "New Zeala", "LAT": -35.745, "LON": 178.478, "ELEV": -140, "TYPE_": "Submarine", "STATUS": "Hydrophon", "TIME_FRAME": "D1" }, "geometry": { "type": "Point", "coordinates": [ 178.47799996, -35.74296879 ] } },
{ "type": "Feature", "properties": { "id": "GLB_VOLC.244", "NUMBER_": "0401-14-", "NAME_": "RUMBLE IV", "LOCATION": "New Zeala", "LAT": -36.22, "LON": 178.05, "ELEV": -450, "TYPE_": "Submarine", "STATUS": "Fumarolic", "TIME_FRAME": "U" }, "geometry": { "type": "Point", "coordinates": [ 178.050000039999986, -36.21795788 ] } },
{ "type": "Feature", "properties": { "id": "GLB_VOLC.245", "NUMBER_": "0401-15-", "NAME_": "RUMBLE V", "LOCATION": "New Zeala", "LAT": -36.139, "LON": 178.197, "ELEV": -700, "TYPE_": "Submarine", "STATUS": "Fumarolic", "TIME_FRAME": "U" }, "geometry": { "type": "Point", "coordinates": [ 178.197, -36.13695966 ] } },
{ "type": "Feature", "properties": { "id": "GLB_VOLC.246", "NUMBER_": "0402-01=", "NAME_": "CURTIS IS", "LOCATION": "Kermadec", "LAT": -30.542, "LON": -178.561, "ELEV": 137, "TYPE_": "Submarine", "STATUS": "Uncertain", "TIME_FRAME": "?" }, "geometry": { "type": "Point", "coordinates": [ -178.56100005, -30.54012442 ] } },
{ "type": "Feature", "properties": { "id": "GLB_VOLC.247", "NUMBER_": "0402-02=", "NAME_": "BRIMSTONE", "LOCATION": "Kermadec", "LAT": -30.23, "LON": -178.92, "ELEV": -2000, "TYPE_": "Submarine", "STATUS": "Uncertain", "TIME_FRAME": "?" }, "geometry": { "type": "Point", "coordinates": [ -178.920000030000011, -30.22813592 ] } },
{ "type": "Feature", "properties": { "id": "GLB_VOLC.248", "NUMBER_": "0402-021", "NAME_": "MACAULEY", "LOCATION": "Kermadec", "LAT": -30.2, "LON": -178.47, "ELEV": 238, "TYPE_": "Caldera", "STATUS": "Holocene", "TIME_FRAME": "U" }, "geometry": { "type": "Point", "coordinates": [ -178.47000006, -30.19813699 ] } },
{ "type": "Feature", "properties": { "id": "GLB_VOLC.249", "NUMBER_": "0402-03=", "NAME_": "RAOUL ISL", "LOCATION": "Kermadec", "LAT": -29.27, "LON": -177.92, "ELEV": 516, "TYPE_": "Stratovol", "STATUS": "Historica", "TIME_FRAME": "D1" }, "geometry": { "type": "Point", "coordinates": [ -177.92000004, -29.26817227 ] } },
{ "type": "Feature", "properties": { "id": "GLB_VOLC.250", "NUMBER_": "0402-04=", "NAME_": "UNNAMED", "LOCATION": "Kermadec", "LAT": -29.18, "LON": -177.87, "ELEV": -560, "TYPE_": "Submarine", "STATUS": "Historica", "TIME_FRAME": "D3" }, "geometry": { "type": "Point", "coordinates": [ -177.86999990000001, -29.17817567 ] } },
{ "type": "Feature", "properties": { "id": "GLB_VOLC.251", "NUMBER_": "0402-05-", "NAME_": "MONOWAI S", "LOCATION": "Kermadec", "LAT": -25.888, "LON": -177.188, "ELEV": -100, "TYPE_": "Submarine", "STATUS": "Historica", "TIME_FRAME": "D1" }, "geometry": { "type": "Point", "coordinates": [ -177.18800004, -25.88631638 ] } },
{ "type": "Feature", "properties": { "id": "GLB_VOLC.252", "NUMBER_": "0403-01=", "NAME_": "UNNAMED", "LOCATION": "Tonga-SW", "LAT": -21.38, "LON": -175.65, "ELEV": -500, "TYPE_": "Submarine", "STATUS": "Historica", "TIME_FRAME": "D2" }, "geometry": { "type": "Point", "coordinates": [ -175.64999992, -21.37854466 ] } },
{ "type": "Feature", "properties": { "id": "GLB_VOLC.253", "NUMBER_": "0403-03=", "NAME_": "UNNAMED", "LOCATION": "Tonga-SW", "LAT": -20.85, "LON": -175.53, "ELEV": -13, "TYPE_": "Submarine", "STATUS": "Historica", "TIME_FRAME": "D2" }, "geometry": { "type": "Point", "coordinates": [ -175.529999980000014, -20.84857407 ] } },
{ "type": "Feature", "properties": { "id": "GLB_VOLC.254", "NUMBER_": "0403-04=", "NAME_": "UNNAMED", "LOCATION": "Tonga-SW", "LAT": -20.57, "LON": -175.38, "ELEV": 0, "TYPE_": "Submarine", "STATUS": "Historica", "TIME_FRAME": "D1" }, "geometry": { "type": "Point", "coordinates": [ -175.379999989999988, -20.56858967 ] } },
{ "type": "Feature", "properties": { "id": "GLB_VOLC.255", "NUMBER_": "0403-05=", "NAME_": "FALCON IS", "LOCATION": "Tonga-SW", "LAT": -20.32, "LON": -175.42, "ELEV": 145, "TYPE_": "Submarine", "STATUS": "Historica", "TIME_FRAME": "D1" }, "geometry": { "type": "Point", "coordinates": [ -175.41999997, -20.31860375 ] } },
{ "type": "Feature", "properties": { "id": "GLB_VOLC.256", "NUMBER_": "0403-06=", "NAME_": "TOFUA", "LOCATION": "Tonga-SW", "LAT": -19.75, "LON": -175.07, "ELEV": 512, "TYPE_": "Caldera", "STATUS": "Historica", "TIME_FRAME": "D2" }, "geometry": { "type": "Point", "coordinates": [ -175.07000007, -19.74863645 ] } },
{ "type": "Feature", "properties": { "id": "GLB_VOLC.257", "NUMBER_": "0403-07=", "NAME_": "METIS SHO", "LOCATION": "Tonga-SW", "LAT": -19.18, "LON": -174.87, "ELEV": -4, "TYPE_": "Submarine", "STATUS": "Historica", "TIME_FRAME": "D1" }, "geometry": { "type": "Point", "coordinates": [ -174.86999995, -19.17866969 ] } },
{ "type": "Feature", "properties": { "id": "GLB_VOLC.258", "NUMBER_": "0403-08=", "NAME_": "HOME REEF", "LOCATION": "Tonga-SW", "LAT": -18.992, "LON": -174.775, "ELEV": -2, "TYPE_": "Submarine", "STATUS": "Historica", "TIME_FRAME": "D1" }, "geometry": { "type": "Point", "coordinates": [ -174.77500007, -18.99068072 ] } },
{ "type": "Feature", "properties": { "id": "GLB_VOLC.259", "NUMBER_": "0403-09=", "NAME_": "LATE", "LOCATION": "Tonga-SW", "LAT": -18.806, "LON": -174.65, "ELEV": 518, "TYPE_": "Stratovol", "STATUS": "Historica", "TIME_FRAME": "D3" }, "geometry": { "type": "Point", "coordinates": [ -174.649999939999987, -18.80469163 ] } },
{ "type": "Feature", "properties": { "id": "GLB_VOLC.260", "NUMBER_": "0403-10=", "NAME_": "FONUALEI", "LOCATION": "Tonga-SW", "LAT": -18.02, "LON": -174.325, "ELEV": 200, "TYPE_": "Stratovol", "STATUS": "Historica", "TIME_FRAME": "D2" }, "geometry": { "type": "Point", "coordinates": [ -174.3249999, -18.01873865 ] } },
{ "type": "Feature", "properties": { "id": "GLB_VOLC.261", "NUMBER_": "0403-101", "NAME_": "CURACOA", "LOCATION": "Tonga-SW", "LAT": -15.62, "LON": -173.67, "ELEV": -33, "TYPE_": "Submarine", "STATUS": "Historica", "TIME_FRAME": "D1" }, "geometry": { "type": "Point", "coordinates": [ -173.67000005, -15.61888803 ] } },
{ "type": "Feature", "properties": { "id": "GLB_VOLC.262", "NUMBER_": "0403-11=", "NAME_": "NIUAFO'OU", "LOCATION": "Tonga-SW", "LAT": -15.6, "LON": -175.63, "ELEV": 260, "TYPE_": "Shield vo", "STATUS": "Historica", "TIME_FRAME": "D1" }, "geometry": { "type": "Point", "coordinates": [ -175.63000004, -15.59888943 ] } },
{ "type": "Feature", "properties": { "id": "GLB_VOLC.263", "NUMBER_": "0404-00-", "NAME_": "UNNAMED", "LOCATION": "Samoa-SW", "LAT": -14.23, "LON": -169.07, "ELEV": -650, "TYPE_": "Submarine", "STATUS": "Uncertain", "TIME_FRAME": "?" }, "geometry": { "type": "Point", "coordinates": [ -169.06999995000001, -14.22897834 ] } },
{ "type": "Feature", "properties": { "id": "GLB_VOLC.264", "NUMBER_": "0404-001", "NAME_": "TA'U", "LOCATION": "Samoa-SW", "LAT": -14.23, "LON": -169.454, "ELEV": 931, "TYPE_": "Shield vo", "STATUS": "Holocene", "TIME_FRAME": "U" }, "geometry": { "type": "Point", "coordinates": [ -169.45399999, -14.22897834 ] } },
{ "type": "Feature", "properties": { "id": "GLB_VOLC.265", "NUMBER_": "0404-01=", "NAME_": "OFU-OLOSE", "LOCATION": "Samoa-SW", "LAT": -14.175, "LON": -169.618, "ELEV": 639, "TYPE_": "Shield vo", "STATUS": "Historica", "TIME_FRAME": "D3" }, "geometry": { "type": "Point", "coordinates": [ -169.618000020000011, -14.17398185 ] } },
{ "type": "Feature", "properties": { "id": "GLB_VOLC.266", "NUMBER_": "0404-02-", "NAME_": "TUTUILA", "LOCATION": "Samoa-SW", "LAT": -14.295, "LON": -170.7, "ELEV": 653, "TYPE_": "Tuff cone", "STATUS": "Holocene", "TIME_FRAME": "U" }, "geometry": { "type": "Point", "coordinates": [ -170.69999992000001, -14.29397391 ] } },
{ "type": "Feature", "properties": { "id": "GLB_VOLC.267", "NUMBER_": "0404-03-", "NAME_": "UPOLU", "LOCATION": "Samoa-SW", "LAT": -13.935, "LON": -171.72, "ELEV": 1100, "TYPE_": "Shield vo", "STATUS": "Holocene", "TIME_FRAME": "U" }, "geometry": { "type": "Point", "coordinates": [ -171.72, -13.93399779 ] } },
{ "type": "Feature", "properties": { "id": "GLB_VOLC.268", "NUMBER_": "0404-04=", "NAME_": "SAVAI'I", "LOCATION": "Samoa-SW", "LAT": -13.612, "LON": -172.525, "ELEV": 1858, "TYPE_": "Shield vo", "STATUS": "Historica", "TIME_FRAME": "D2" }, "geometry": { "type": "Point", "coordinates": [ -172.525000049999989, -13.61101912 ] } },
{ "type": "Feature", "properties": { "id": "GLB_VOLC.269", "NUMBER_": "0404-05-", "NAME_": "WALLIS IS", "LOCATION": "SW Pacifi", "LAT": -13.3, "LON": -176.17, "ELEV": 143, "TYPE_": "Shield vo", "STATUS": "Holocene", "TIME_FRAME": "U" }, "geometry": { "type": "Point", "coordinates": [ -176.16999991, -13.29903986 ] } },
{ "type": "Feature", "properties": { "id": "GLB_VOLC.270", "NUMBER_": "0405-01-", "NAME_": "TAVEUNI", "LOCATION": "Fiji Is-S", "LAT": -16.82, "LON": -179.97, "ELEV": 1241, "TYPE_": "Shield vo", "STATUS": "Radiocarb", "TIME_FRAME": "D7" }, "geometry": { "type": "Point", "coordinates": [ -179.96999994, -16.8188124 ] } },
{ "type": "Feature", "properties": { "id": "GLB_VOLC.271", "NUMBER_": "0405-02-", "NAME_": "KORO", "LOCATION": "Fiji Is-S", "LAT": -17.32, "LON": 179.4, "ELEV": 522, "TYPE_": "Cinder co", "STATUS": "Holocene?", "TIME_FRAME": "?" }, "geometry": { "type": "Point", "coordinates": [ 179.39999993, -17.31878134 ] } },
{ "type": "Feature", "properties": { "id": "GLB_VOLC.272", "NUMBER_": "0500-01=", "NAME_": "ST. ANDRE", "LOCATION": "Admiralty", "LAT": -2.38, "LON": 147.35, "ELEV": 270, "TYPE_": "Complex v", "STATUS": "Historica", "TIME_FRAME": "D2" }, "geometry": { "type": "Point", "coordinates": [ 147.35000004, -2.37982207 ] } },
{ "type": "Feature", "properties": { "id": "GLB_VOLC.273", "NUMBER_": "0500-02-", "NAME_": "BALUAN", "LOCATION": "Admiralty", "LAT": -2.57, "LON": 147.28, "ELEV": 254, "TYPE_": "Stratovol", "STATUS": "Holocene?", "TIME_FRAME": "U" }, "geometry": { "type": "Point", "coordinates": [ 147.280000019999989, -2.56980787 ] } },
{ "type": "Feature", "properties": { "id": "GLB_VOLC.274", "NUMBER_": "0500-03-", "NAME_": "UNNAMED", "LOCATION": "Admiralty", "LAT": -3.03, "LON": 147.78, "ELEV": -1300, "TYPE_": "Submarine", "STATUS": "Hydrophon", "TIME_FRAME": "D1" }, "geometry": { "type": "Point", "coordinates": [ 147.779999909999987, -3.02977351 ] } },
{ "type": "Feature", "properties": { "id": "GLB_VOLC.275", "NUMBER_": "0501-001", "NAME_": "BLUP BLUP", "LOCATION": "New Guine", "LAT": -3.508, "LON": 144.62, "ELEV": 402, "TYPE_": "Stratovol", "STATUS": "Holocene", "TIME_FRAME": "U" }, "geometry": { "type": "Point", "coordinates": [ 144.62000002, -3.50773802 ] } },
{ "type": "Feature", "properties": { "id": "GLB_VOLC.276", "NUMBER_": "0501-002", "NAME_": "KADOVAR", "LOCATION": "New Guine", "LAT": -3.62, "LON": 144.62, "ELEV": 365, "TYPE_": "Stratovol", "STATUS": "Holocene", "TIME_FRAME": "U" }, "geometry": { "type": "Point", "coordinates": [ 144.62000002, -3.61972965 ] } },
{ "type": "Feature", "properties": { "id": "GLB_VOLC.277", "NUMBER_": "0501-01=", "NAME_": "BAM", "LOCATION": "New Guine", "LAT": -3.6, "LON": 144.85, "ELEV": 685, "TYPE_": "Stratovol", "STATUS": "Historica", "TIME_FRAME": "D2" }, "geometry": { "type": "Point", "coordinates": [ 144.84999997, -3.59973125 ] } },
{ "type": "Feature", "properties": { "id": "GLB_VOLC.278", "NUMBER_": "0501-011", "NAME_": "BOISA", "LOCATION": "New Guine", "LAT": -3.994, "LON": 144.963, "ELEV": 240, "TYPE_": "Stratovol", "STATUS": "Holocene?", "TIME_FRAME": "U" }, "geometry": { "type": "Point", "coordinates": [ 144.963, -3.993702 ] } },
{ "type": "Feature", "properties": { "id": "GLB_VOLC.279", "NUMBER_": "0501-02=", "NAME_": "MANAM", "LOCATION": "New Guine", "LAT": -4.1, "LON": 145.061, "ELEV": 1807, "TYPE_": "Stratovol", "STATUS": "Historica", "TIME_FRAME": "D1" }, "geometry": { "type": "Point", "coordinates": [ 145.06099991, -4.09969405 ] } },
{ "type": "Feature", "properties": { "id": "GLB_VOLC.280", "NUMBER_": "0501-03=", "NAME_": "KARKAR", "LOCATION": "New Guine", "LAT": -4.649, "LON": 145.964, "ELEV": 1839, "TYPE_": "Stratovol", "STATUS": "Historica", "TIME_FRAME": "D1" }, "geometry": { "type": "Point", "coordinates": [ 145.96400007, -4.64865359 ] } },
{ "type": "Feature", "properties": { "id": "GLB_VOLC.281", "NUMBER_": "0501-04=", "NAME_": "UNNAMED", "LOCATION": "New Guine", "LAT": -4.311, "LON": 146.256, "ELEV": -2000, "TYPE_": "Submarine", "STATUS": "Uncertain", "TIME_FRAME": "?" }, "geometry": { "type": "Point", "coordinates": [ 146.256000050000011, -4.31067857 ] } },
{ "type": "Feature", "properties": { "id": "GLB_VOLC.282", "NUMBER_": "0501-041", "NAME_": "YOMBA", "LOCATION": "New Guine", "LAT": -4.92, "LON": 146.75, "ELEV": 0, "TYPE_": "Unknown", "STATUS": "Uncertain", "TIME_FRAME": "?" }, "geometry": { "type": "Point", "coordinates": [ 146.750000089999986, -4.9196336 ] } },
{ "type": "Feature", "properties": { "id": "GLB_VOLC.283", "NUMBER_": "0501-05=", "NAME_": "LONG ISLA", "LOCATION": "New Guine", "LAT": -5.358, "LON": 147.12, "ELEV": 1280, "TYPE_": "Complex v", "STATUS": "Historica", "TIME_FRAME": "D1" }, "geometry": { "type": "Point", "coordinates": [ 147.12000009, -5.3576012 ] } },
{ "type": "Feature", "properties": { "id": "GLB_VOLC.284", "NUMBER_": "0501-06=", "NAME_": "UMBOI", "LOCATION": "New Guine", "LAT": -5.589, "LON": 147.875, "ELEV": 1548, "TYPE_": "Complex v", "STATUS": "Holocene", "TIME_FRAME": "U" }, "geometry": { "type": "Point", "coordinates": [ 147.875, -5.58858426 ] } },
{ "type": "Feature", "properties": { "id": "GLB_VOLC.285", "NUMBER_": "0501-07=", "NAME_": "RITTER IS", "LOCATION": "New Guine", "LAT": -5.52, "LON": 148.121, "ELEV": 140, "TYPE_": "Stratovol", "STATUS": "Historica", "TIME_FRAME": "D1" }, "geometry": { "type": "Point", "coordinates": [ 148.12099994, -5.51958938 ] } },
{ "type": "Feature", "properties": { "id": "GLB_VOLC.286", "NUMBER_": "0501-08=", "NAME_": "SAKAR", "LOCATION": "New Guine", "LAT": -5.414, "LON": 148.094, "ELEV": 992, "TYPE_": "Stratovol", "STATUS": "Holocene?", "TIME_FRAME": "?" }, "geometry": { "type": "Point", "coordinates": [ 148.09399993, -5.41359706 ] } },
{ "type": "Feature", "properties": { "id": "GLB_VOLC.287", "NUMBER_": "0502-001", "NAME_": "UNNAMED", "LOCATION": "New Brita", "LAT": -5.2, "LON": 148.57, "ELEV": 0, "TYPE_": "Submarine", "STATUS": "Uncertain", "TIME_FRAME": "?" }, "geometry": { "type": "Point", "coordinates": [ 148.57000004, -5.19961285 ] } },
{ "type": "Feature", "properties": { "id": "GLB_VOLC.288", "NUMBER_": "0502-01=", "NAME_": "LANGILA", "LOCATION": "New Brita", "LAT": -5.525, "LON": 148.42, "ELEV": 1330, "TYPE_": "Complex v", "STATUS": "Historica", "TIME_FRAME": "D1" }, "geometry": { "type": "Point", "coordinates": [ 148.42000005, -5.52458899 ] } },
{ "type": "Feature", "properties": { "id": "GLB_VOLC.289", "NUMBER_": "0502-02=", "NAME_": "NARAGE", "LOCATION": "New Brita", "LAT": -4.55, "LON": 149.125, "ELEV": 307, "TYPE_": "Stratovol", "STATUS": "Pleistoce", "TIME_FRAME": "Q" }, "geometry": { "type": "Point", "coordinates": [ 149.12500003, -4.54966092 ] } },
{ "type": "Feature", "properties": { "id": "GLB_VOLC.290", "NUMBER_": "0502-021", "NAME_": "MUNDUA", "LOCATION": "New Brita", "LAT": -4.63, "LON": 149.35, "ELEV": 179, "TYPE_": "Complex v", "STATUS": "Holocene", "TIME_FRAME": "U" }, "geometry": { "type": "Point", "coordinates": [ 149.35000001, -4.62965497 ] } },
{ "type": "Feature", "properties": { "id": "GLB_VOLC.291", "NUMBER_": "0502-03=", "NAME_": "GAROVE", "LOCATION": "New Brita", "LAT": -4.692, "LON": 149.5, "ELEV": 368, "TYPE_": "Stratovol", "STATUS": "Holocene", "TIME_FRAME": "U" }, "geometry": { "type": "Point", "coordinates": [ 149.5, -4.69165042 ] } },
{ "type": "Feature", "properties": { "id": "GLB_VOLC.292", "NUMBER_": "0502-04=", "NAME_": "DAKATAUA", "LOCATION": "New Brita", "LAT": -5.056, "LON": 150.108, "ELEV": 400, "TYPE_": "Caldera", "STATUS": "Anthropol", "TIME_FRAME": "D3" }, "geometry": { "type": "Point", "coordinates": [ 150.10799995, -5.05562351 ] } },
{ "type": "Feature", "properties": { "id": "GLB_VOLC.293", "NUMBER_": "0502-05=", "NAME_": "BOLA", "LOCATION": "New Brita", "LAT": -5.15, "LON": 150.03, "ELEV": 1155, "TYPE_": "Stratovol", "STATUS": "Holocene", "TIME_FRAME": "U" }, "geometry": { "type": "Point", "coordinates": [ 150.02999993, -5.1496166 ] } },
{ "type": "Feature", "properties": { "id": "GLB_VOLC.294", "NUMBER_": "0502-06=", "NAME_": "GARUA HAR", "LOCATION": "New Brita", "LAT": -5.269, "LON": 150.088, "ELEV": 565, "TYPE_": "Volcanic", "STATUS": "Holocene?", "TIME_FRAME": "?" }, "geometry": { "type": "Point", "coordinates": [ 150.088000060000013, -5.26860771 ] } },
{ "type": "Feature", "properties": { "id": "GLB_VOLC.295", "NUMBER_": "0502-07=", "NAME_": "GARBUNA G", "LOCATION": "New Brita", "LAT": -5.45, "LON": 150.03, "ELEV": 564, "TYPE_": "Stratovol", "STATUS": "Holocene", "TIME_FRAME": "U" }, "geometry": { "type": "Point", "coordinates": [ 150.02999993, -5.4495945 ] } },
{ "type": "Feature", "properties": { "id": "GLB_VOLC.296", "NUMBER_": "0502-071", "NAME_": "LOLO", "LOCATION": "New Brita", "LAT": -5.47, "LON": 150.5, "ELEV": 805, "TYPE_": "Stratovol", "STATUS": "Holocene?", "TIME_FRAME": "?" }, "geometry": { "type": "Point", "coordinates": [ 150.49999999, -5.46959313 ] } },
{ "type": "Feature", "properties": { "id": "GLB_VOLC.297", "NUMBER_": "0502-08=", "NAME_": "PAGO", "LOCATION": "New Brita", "LAT": -5.58, "LON": 150.52, "ELEV": 742, "TYPE_": "Caldera", "STATUS": "Historica", "TIME_FRAME": "D2" }, "geometry": { "type": "Point", "coordinates": [ 150.520000079999988, -5.57958484 ] } },
{ "type": "Feature", "properties": { "id": "GLB_VOLC.298", "NUMBER_": "0502-09=", "NAME_": "WALO", "LOCATION": "New Brita", "LAT": -5.53, "LON": 150.9, "ELEV": 15, "TYPE_": "Hydrother", "STATUS": "Hot Sprin", "TIME_FRAME": "?" }, "geometry": { "type": "Point", "coordinates": [ 150.90000002, -5.52958859 ] } },
{ "type": "Feature", "properties": { "id": "GLB_VOLC.299", "NUMBER_": "0502-10=", "NAME_": "HARGY", "LOCATION": "New Brita", "LAT": -5.33, "LON": 151.1, "ELEV": 1148, "TYPE_": "Stratovol", "STATUS": "Radiocarb", "TIME_FRAME": "D6" }, "geometry": { "type": "Point", "coordinates": [ 151.09999994, -5.32960338 ] } },
{ "type": "Feature", "properties": { "id": "GLB_VOLC.300", "NUMBER_": "0502-11=", "NAME_": "BAMUS", "LOCATION": "New Brita", "LAT": -5.2, "LON": 151.23, "ELEV": 2248, "TYPE_": "Stratovol", "STATUS": "Anthropol", "TIME_FRAME": "D3" }, "geometry": { "type": "Point", "coordinates": [ 151.23000004, -5.19961285 ] } },
{ "type": "Feature", "properties": { "id": "GLB_VOLC.301", "NUMBER_": "0502-12=", "NAME_": "ULAWUN", "LOCATION": "New Brita", "LAT": -5.05, "LON": 151.33, "ELEV": 2334, "TYPE_": "Stratovol", "STATUS": "Historica", "TIME_FRAME": "D1" }, "geometry": { "type": "Point", "coordinates": [ 151.3300001, -5.04962391 ] } },
{ "type": "Feature", "properties": { "id": "GLB_VOLC.302", "NUMBER_": "0502-13=", "NAME_": "LOLOBAU", "LOCATION": "New Brita", "LAT": -4.92, "LON": 151.158, "ELEV": 858, "TYPE_": "Caldera", "STATUS": "Historica", "TIME_FRAME": "D2" }, "geometry": { "type": "Point", "coordinates": [ 151.158000070000014, -4.9196336 ] } },
{ "type": "Feature", "properties": { "id": "GLB_VOLC.303", "NUMBER_": "0502-131", "NAME_": "UNNAMED", "LOCATION": "New Brita", "LAT": -4.75, "LON": 150.85, "ELEV": 0, "TYPE_": "Submarine", "STATUS": "Uncertain", "TIME_FRAME": "?" }, "geometry": { "type": "Point", "coordinates": [ 150.850000099999988, -4.74964606 ] } },
{ "type": "Feature", "properties": { "id": "GLB_VOLC.304", "NUMBER_": "0502-14=", "NAME_": "RABAUL", "LOCATION": "New Brita", "LAT": -4.271, "LON": 152.203, "ELEV": 688, "TYPE_": "Pyroclast", "STATUS": "Historica", "TIME_FRAME": "D1" }, "geometry": { "type": "Point", "coordinates": [ 152.203000010000011, -4.27068155 ] } },
{ "type": "Feature", "properties": { "id": "GLB_VOLC.305", "NUMBER_": "0503-00-", "NAME_": "DOMA PEAK", "LOCATION": "New Guine", "LAT": -5.9, "LON": 143.15, "ELEV": 3568, "TYPE_": "Stratovol", "STATUS": "Holocene?", "TIME_FRAME": "?" }, "geometry": { "type": "Point", "coordinates": [ 143.14999998, -5.89956144 ] } },
{ "type": "Feature", "properties": { "id": "GLB_VOLC.306", "NUMBER_": "0503-001", "NAME_": "CRATER MO", "LOCATION": "New Guine", "LAT": -6.58, "LON": 145.08, "ELEV": 3233, "TYPE_": "Stratovol", "STATUS": "Holocene?", "TIME_FRAME": "?" }, "geometry": { "type": "Point", "coordinates": [ 145.079999930000014, -6.57951187 ] } },
{ "type": "Feature", "properties": { "id": "GLB_VOLC.307", "NUMBER_": "0503-002", "NAME_": "YELIA", "LOCATION": "New Guine", "LAT": -7.05, "LON": 145.858, "ELEV": 3384, "TYPE_": "Stratovol", "STATUS": "Holocene?", "TIME_FRAME": "?" }, "geometry": { "type": "Point", "coordinates": [ 145.85799996, -7.04947754 ] } },
{ "type": "Feature", "properties": { "id": "GLB_VOLC.308", "NUMBER_": "0503-003", "NAME_": "KORANGA", "LOCATION": "New Guine", "LAT": -7.33, "LON": 146.708, "ELEV": 0, "TYPE_": "Explosion", "STATUS": "Holocene", "TIME_FRAME": "U" }, "geometry": { "type": "Point", "coordinates": [ 146.707999949999987, -7.32945732 ] } },
{ "type": "Feature", "properties": { "id": "GLB_VOLC.309", "NUMBER_": "0503-004", "NAME_": "MADILOGO", "LOCATION": "New Guine", "LAT": -9.2, "LON": 147.57, "ELEV": 850, "TYPE_": "Pyroclast", "STATUS": "Holocene", "TIME_FRAME": "U" }, "geometry": { "type": "Point", "coordinates": [ 147.57000005, -9.19932305 ] } },
{ "type": "Feature", "properties": { "id": "GLB_VOLC.310", "NUMBER_": "0503-01=", "NAME_": "LAMINGTON", "LOCATION": "New Guine", "LAT": -8.95, "LON": 148.15, "ELEV": 1680, "TYPE_": "Stratovol", "STATUS": "Historica", "TIME_FRAME": "D2" }, "geometry": { "type": "Point", "coordinates": [ 148.14999991, -8.94934099 ] } },
{ "type": "Feature", "properties": { "id": "GLB_VOLC.311", "NUMBER_": "0503-011", "NAME_": "HYDROGRAP", "LOCATION": "New Guine", "LAT": -9.0, "LON": 148.37, "ELEV": 1915, "TYPE_": "Stratovol", "STATUS": "Holocene", "TIME_FRAME": "U" }, "geometry": { "type": "Point", "coordinates": [ 148.36999992, -8.99933736 ] } },
{ "type": "Feature", "properties": { "id": "GLB_VOLC.312", "NUMBER_": "0503-02=", "NAME_": "MUSA RIVE", "LOCATION": "New Guine", "LAT": -9.308, "LON": 148.13, "ELEV": 808, "TYPE_": "Hydrother", "STATUS": "Hot Sprin", "TIME_FRAME": "?" }, "geometry": { "type": "Point", "coordinates": [ 148.130000020000011, -9.30731544 ] } },
{ "type": "Feature", "properties": { "id": "GLB_VOLC.313", "NUMBER_": "0503-021", "NAME_": "MANAGLASE", "LOCATION": "New Guine", "LAT": -9.08, "LON": 148.33, "ELEV": 1342, "TYPE_": "Volcanic", "STATUS": "Anthropol", "TIME_FRAME": "U" }, "geometry": { "type": "Point", "coordinates": [ 148.329999930000014, -9.07933163 ] } },
{ "type": "Feature", "properties": { "id": "GLB_VOLC.314", "NUMBER_": "0503-03=", "NAME_": "VICTORY", "LOCATION": "New Guine", "LAT": -9.2, "LON": 149.07, "ELEV": 1925, "TYPE_": "Stratovol", "STATUS": "Historica", "TIME_FRAME": "D2" }, "geometry": { "type": "Point", "coordinates": [ 149.06999993, -9.19932305 ] } },
{ "type": "Feature", "properties": { "id": "GLB_VOLC.315", "NUMBER_": "0503-031", "NAME_": "SESSAGARA", "LOCATION": "New Guine", "LAT": -9.48, "LON": 149.13, "ELEV": 370, "TYPE_": "Unknown", "STATUS": "Holocene", "TIME_FRAME": "U" }, "geometry": { "type": "Point", "coordinates": [ 149.13, -9.47930329 ] } },
{ "type": "Feature", "properties": { "id": "GLB_VOLC.316", "NUMBER_": "0503-04=", "NAME_": "WAIOWA", "LOCATION": "New Guine", "LAT": -9.57, "LON": 149.075, "ELEV": 640, "TYPE_": "Pyroclast", "STATUS": "Historica", "TIME_FRAME": "D2" }, "geometry": { "type": "Point", "coordinates": [ 149.0749999, -9.56929683 ] } },
{ "type": "Feature", "properties": { "id": "GLB_VOLC.317", "NUMBER_": "0503-041", "NAME_": "GOODENOUG", "LOCATION": "D'Entreca", "LAT": -9.48, "LON": 150.35, "ELEV": 220, "TYPE_": "Volcanic", "STATUS": "Holocene", "TIME_FRAME": "U" }, "geometry": { "type": "Point", "coordinates": [ 150.35, -9.47930329 ] } },
{ "type": "Feature", "properties": { "id": "GLB_VOLC.318", "NUMBER_": "0503-05=", "NAME_": "IAMELELE", "LOCATION": "D'Entreca", "LAT": -9.52, "LON": 150.53, "ELEV": 200, "TYPE_": "Lava dome", "STATUS": "Holocene", "TIME_FRAME": "U" }, "geometry": { "type": "Point", "coordinates": [ 150.53000003, -9.51930044 ] } },